,uid,latitude,longitude,name,city,st,zip,cat,elev,comments,height
0,100749,34.983726000000004,-86.851996,Low Clearance,Ardmore,AL,35739,LC11,,Height not marked but it is believed to be 11 ft (136),11.0
1,100750,34.992213,-86.84716800000002,Low Clearance,Ardmore,AL,38449,LC13,,13 - 6 height clearance,13.6
2,100758,34.797197,-86.970228,Low Clearance,Athens,AL,35611,LC10,,10 - 0 height clearance (136),10.0
3,100770,34.018626,-86.085077,Low Clearance,Attalla,AL,35954,LC13,,13 - 7 height clearance,13.7
4,100771,34.02112,-86.08751,Low Clearance,Attalla,AL,35954,LC13,,13 - 8 height clearance,13.8
5,100772,34.021138,-86.087532,Low Clearance,Attalla,AL,35954,LC14,,14 - 1 height clearance,14.1
6,100783,33.404141,-86.94768499999998,Low Clearance,Bessemer,AL,35020,LC10,,10 - 0 height clearance (136),10.0
7,100803,33.498408000000005,-86.818729,Low Clearance,Birmingham,AL,35233,LC13,,13 - 8 height clearance,13.8
8,100804,33.526227,-86.791145,Low Clearance,Birmingham,AL,35222,LC13,,13 - 9 height clearance,13.9
9,100805,33.533206,-86.755713,Low Clearance,Birmingham,AL,35212,LC13,,13 - 7 height clearance,13.7
10,100806,33.536004,-86.807014,Low Clearance,Birmingham,AL,35234,LC13,,13 - 7 height clearance,13.7
11,100807,33.536026,-86.807005,Low Clearance,Birmingham,AL,35234,LC13,,13 - 7 height clearance,13.7
12,100808,33.537586,-86.752312,Low Clearance,Birmingham,AL,35212,LC13,,13 - 3 height clearance (136),13.3
13,100828,33.49658400000001,-86.839576,Low Clearance,Birminghan,AL,35211,LC13,,13 - 6  height clearance,13.6
14,100829,33.509161,-86.813139,Low Clearance,Birminghan,AL,35233,LC13,,13 - 8  height clearance,13.8
15,100830,33.511790999999995,-86.807662,Low Clearance,Birminghan,AL,35203,LC12,,12 - 10 height clearance (136),12.1
16,100831,33.512508000000004,-86.806203,Low Clearance,Birminghan,AL,35203,LC14,,14 - 1 height clearance,14.1
17,100832,33.513086,-86.80476,Low Clearance,Birminghan,AL,35234,LC13,,13 - 4 height clearance (136),13.4
18,100833,33.526196,-86.79114799999998,Low Clearance,Birminghan,AL,35222,LC13,,13 - 9 height clearance,13.9
19,100834,33.537828999999995,-86.752206,Low Clearance,Birminghan,AL,35212,LC13,,13 - 3 height clearance (136),13.3
20,100835,33.538064,-86.751561,Low Clearance,Birminghan,AL,35212,LC13,,13 - 3 height clearance (136),13.3
21,100859,34.938072,-85.747757,Low Clearance,Bridgeport,AL,35740,LC8,,8 - 1 height clearance (136),8.1
22,100860,34.947323,-85.71284200000002,Low Clearance,Bridgeport,AL,35740,LC10,,10 - 6 height clearance (136),10.6
23,100887,33.346979,-86.63934300000003,Low Clearance,Chelsea,AL,35043,LC13,,13 - 6 height clearance,13.6
24,100892,33.276052,-86.350246,Low Clearance,Childersburg,AL,35044,LC8,,8 - 0 height clearance (136),8.0
25,100893,33.278743,-86.352961,Low Clearance,Childersburg,AL,35044,LC14,,14 - 0 height clearance,14.0
26,100913,33.784581,-87.20787299999998,Low Clearance,Cordova,AL,35550,LC8,,8 - 0 height clearance (136),8.0
27,100939,34.145602000000004,-86.83074,Low Clearance,Cullman,AL,35055,LC9,,9 - 8 height clearance (136),9.8
28,100940,34.155072,-86.832798,Low Clearance,Cullman,AL,35055,LC8,,8 - 0 height clearance (136),8.0
29,100958,34.611656,-86.988661,Low Clearance,Decatur,AL,35601,LC10,,10 - 8 height clearance (136),10.8
30,100969,32.52095,-87.828942,Low Clearance,Demopolis,AL,36732,LC7,,7 - 0 height clearance (136),7.0
31,100973,33.73207,-87.103166,Low Clearance,Dora,AL,35062,LC8,,8 - 0 height clearance (136),8.0
32,101010,31.310709000000006,-85.850894,Low Clearance,Enterprise,AL,36330,LC14,,14 - 0 height clearance,14.0
33,101037,34.85102,-87.5705,Low Clearance,Florence,AL,35630,LC12,,bridge replaced with new one next to it - 12 - 1 height clearance (136),12.1
34,101046,32.549556,-87.830642,Low Clearance,Forkland,AL,36740,LC8,,8 - 0 height clearance (136),8.0
35,101055,34.009452,-85.993284,Low Clearance,Gadsden,AL,35903,LC14,,14 - 6 height clearance,14.6
36,101068,33.323592,-87.910262,Low Clearance,Gordo,AL,35466,LC13,,13 - 6 height clearance,13.6
37,101074,31.82954,-86.6279,Low Clearance,Greenville,AL,36037,LC10,,10 - 6 height clearance (136),10.6
38,101091,34.207874,-87.631328,Low Clearance,Haleyville,AL,35565,LC15,,15 - 2 height clearance,15.2
39,101092,34.233788,-87.633696,Low Clearance,Haleyville,AL,35565,LC15,,16 - 3 height clearance,16.3
40,101106,34.01252,-86.74760400000002,Low Clearance,Hanceville,AL,35077,LC11,,11 - 0 height clearance (136),11.0
41,101116,34.398197,-86.912842,Low Clearance,Hartselle,AL,35640,LC10,,10 height clearance (136),10.0
42,101118,33.88971,-86.75992,Low Clearance,Hayden,AL,35079,LC10,,"Had it as 10-1 but reported as higher than 13-6 and no signage, 10 - 1 height clearance (136)",10.1
43,101119,33.925619,-86.77598,Low Clearance,Hayden,AL,35079,LC10,,10 - 0 height clearance (136),10.0
44,101181,33.544714,-86.535829,Low Clearance,Leeds,AL,35094,LC8,,8 - 0 height clearance (136),8.0
45,101182,33.548425,-86.543814,Low Clearance,Leeds,AL,35094,LC14,,14 - 0 height clearance,14.0
46,101183,33.555053,-86.57206,Low Clearance,Leeds,AL,35094,LC15,,15 height clearance,15.0
47,101189,33.60427,-86.1945,Low Clearance,Lincoln,AL,35096,LC15,,15 - 3 height clearance in center with 13 - 2 side angle bars,15.3
48,101197,32.583084,-88.184186,Low Clearance,Livingston,AL,35470,LC15,,15 - 7 height clearance,15.7
49,101239,30.693051,-88.03097,Low Clearance,Mobile,AL,36603,LC12,,12 - 0 height clearance (136),12.0
50,101240,30.69596,-88.11267,Low Clearance,Mobile,AL,36603,LC14,,14 - 0 height clearance,14.0
51,101268,32.358886,-86.33506700000002,Low Clearance,Montgomery,AL,36108,LC15,,16 - 0 height clearance,16.0
52,101283,33.714898,-86.73905,Low Clearance,Morris,AL,35116,LC14,,14 - 3 height clearance,14.3
53,101284,33.757931,-86.75313,Low Clearance,Morris,AL,35116,LC9,,9 - 6 height clearance (136),9.6
54,101296,34.08776,-87.601236,Low Clearance,Natural Bridge,AL,35577,LC14,,14 - 10 height clearance,14.1
55,101309,33.971021,-86.518348,Low Clearance,Oneonta,AL,35121,LC10,,10 - 0 height clearance (136),10.0
56,101310,34.00742,-86.44881,Low Clearance,Oneonta,AL,35121,LC8,,8 - 6 height clearance (136),8.6
57,101315,32.62673,-85.3714,Low Clearance,Opelika,AL,36804,LC14,,14 - 0 height clearance,14.0
58,101316,32.643359999999994,-85.386084,Low Clearance,Opelika,AL,36801,LC10,,10 - 1 height clearance (136),10.1
59,101317,32.654214,-85.429663,Low Clearance,Opelika,AL,36801,LC8,,8 - 0 height clearance (136),8.0
60,101339,31.47304,-85.659371,Low Clearance,Ozark,AL,36360,LC8,,8 - 0 height clearance (136),8.0
61,101349,33.592368,-86.398341,Low Clearance,Pell City,AL,35128,LC8,,8 - 0 height clearance (136),8.0
62,101356,32.477308,-84.998559,Low Clearance,Phenix City,AL,36867,LC8,,8 - 0 height clearance (136),8.0
63,101357,32.477348,-84.99685799999997,Low Clearance,Phenix City,AL,36867,LC8,,8 - 0 height clearance (136),8.0
64,101379,33.603035,-86.195588,Low Clearance,Riverside,AL,35135,LC14,,14 - 0 height clearance,14.0
65,101400,34.594856,-86.057277,Low Clearance,Scottsboro,AL,35769,LC15,,16 - 1 height clearance,16.1
66,101401,32.29444,-85.17875,Low Clearance,Seale,AL,36875,LC13,,13 - 1 height clearance (136),13.1
67,101420,30.66657,-87.91688,Low Clearance,Spanish Fort,AL,36527,LC13,,13 - 6 height clearance,13.6
68,101421,30.6781,-87.98661,Low Clearance,Spanish Fort,AL,36527,LC13,,13 - 6 height clearance,13.6
69,101461,33.22703,-87.508562,Low Clearance,Tuscaloosa,AL,35404,LC13,,13 - 8 height clearance,13.8
70,101473,34.713705,-87.63481800000002,Low Clearance,Tuscumbia,AL,35674,LC15,,16 - 0 height clearance,16.0
71,101488,33.37149,-86.40262,Low Clearance,Vincent,AL,35178,LC10,,10 - 10 height clearance (136),10.1
72,101489,33.384689,-86.41194300000002,Low Clearance,Vincent,AL,35178,LC14,,14 - 3 height clearance,14.3
73,101491,33.78454,-86.74916,Low Clearance,Warrior,AL,35180,LC8,,8 - 6 height clearance (136),8.6
74,101500,32.538674,-86.20715799999998,Low Clearance,Wetumpka,AL,36092,LC12,,12 - 6 height clearance (136),12.6
75,101524,35.763795,-91.535852,Low Clearance,Batesville,AR,72501,LC12,,12 - 6 height clearance (136),12.6
76,101566,33.57818,-92.8261,Low Clearance,Camden,AR,71701,LC10,,10 - 1 height clearance (136),10.1
77,101567,33.58788,-92.82704,Low Clearance,Camden,AR,71701,LC13,,13 - 10 height clearance,13.1
78,101568,33.606559999999995,-92.82024,Low Clearance,Camden,AR,71701,LC13,,13 - 1 height clearance (136),13.1
79,101575,34.688809,-91.316231,Low Clearance,Clarendon,AR,72029,LC12,,12 - 1 height clearance (136),12.1
80,101604,35.26824000000001,-90.47207,Low Clearance,Earle,AR,72331,LC9,,9 - 0 height clearance (136),9.0
81,101605,35.26945999999999,-90.46567,Low Clearance,Earle,AR,72331,LC12,,12 - 1 height clearance (136),12.1
82,101643,33.610766,-93.815338,Low Clearance,Fulton,AR,71838,LC8,,8 - 0 height clearance (136),8.0
83,101644,33.613199,-93.812451,Low Clearance,Fulton,AR,71838,LC13,,13 - 8 height clearance,13.8
84,101646,36.490386,-93.932441,Low Clearance,Garfield,AR,72732,LC13,,13 - 10 height clearance,13.1
85,101647,33.369334,-93.717736,Low Clearance,Garland,AR,71839,LC13,,13 - 6 height clearance,13.6
86,101659,33.92202,-93.15095,Low Clearance,Gurdon,AR,71743,LC10,,10 - 6 height clearance (136),10.6
87,101678,34.49264,-93.04841,Low Clearance,Hot Springs,AR,71901,LC11,,11 - 6 height clearance (136),11.6
88,101711,34.740659,-92.295208,Low Clearance,Little Rock,AR,72201,LC11,,11 - 4 height clearance (136),11.4
89,101712,34.74192,-92.25778,Low Clearance,Little Rock,AR,72201,LC12,,12 - 6 height clearance (136),12.6
90,101713,34.741997,-92.252767,Low Clearance,Little Rock,AR,72201,LC13,,13 - 6 height clearance,13.6
91,101714,34.745059999999995,-92.30071,Low Clearance,Little Rock,AR,72201,LC13,,13 - 5 height clearance (136),13.5
92,101715,34.749817,-92.274943,Low Clearance,Little Rock,AR,72201,LC10,,10 - 1 height clearance (136),10.1
93,101757,35.153681,-92.75045,Low Clearance,Morrilton,AR,72110,LC9,,9 - 4 height clearance (136),9.4
94,101758,35.154771999999994,-92.753856,Low Clearance,Morrilton,AR,72110,LC13,,13 - 10 height clearance,13.1
95,101761,35.885512,-91.890616,Low Clearance,Mountain View,AR,72560,LC13,,13 - 5 height clearance (136),13.5
96,101776,35.587339,-91.321836,Low Clearance,Newport,AR,72112,LC10,,10 - 6 height clearance (136),10.6
97,101783,34.75818,-92.2792,Low Clearance,North Little Rock,AR,72114,LC12,,12 - 6 height clearance (136),12.6
98,101784,34.76853,-92.19942,Low Clearance,North Little Rock,AR,72114,LC13,,13 - 10 height clearance,13.1
99,101810,35.26430999999999,-90.55385,Low Clearance,Parkin,AR,72373,LC9,,9 - 8 height clearance (136),9.8
100,101811,35.26450999999999,-90.55601,Low Clearance,Parkin,AR,72373,LC12,,12 - 1 height clearance (136),12.1
101,101812,35.26475999999999,-90.55869,Low Clearance,Parkin,AR,72373,LC11,,11 - 8 height clearance (136),11.8
102,101820,35.25190999999999,-93.04821,Low Clearance,Pottsville,AR,72858,LC11,,11 - 6 height clearance (136),11.6
103,101882,33.42096,-94.03011,Low Clearance,Texarkana,AR,71854,LC14,,14 - 1 height clearance,14.1
104,101883,33.47631,-93.97101,Low Clearance,Texarkana,AR,71854,LC10,,10 - 10 height clearance (136),10.1
105,101893,35.6589,-90.49835,Low Clearance,Trumann,AR,72472,LC9,,9 - 5 height clearance (136),9.5
106,101894,35.67139,-90.50584,Low Clearance,Trumann,AR,72472,LC10,,10 - 5 height clearance (136),10.5
107,101895,35.6783,-90.51006,Low Clearance,Trumann,AR,72472,LC12,,12 - 5 height clearance (136),12.5
108,101897,35.36538,-90.25437,Low Clearance,Turrell,AR,72384,LC11,,11 - 6 height clearance (136),11.6
109,101899,35.43288,-94.35502,Low Clearance,Van Buren,AR,72956,LC12,,12 - 8 height clearance (136),12.8
110,101900,35.43618,-94.35477,Low Clearance,Van Buren,AR,72956,LC10,,10 - 0 height clearance (136),10.0
111,101901,35.43653,-94.35378,Low Clearance,Van Buren,AR,72956,LC10,,10 - 10 height clearance (136),10.1
112,101961,31.441105,-109.913317,Low Clearance,Bisbee,AZ,85603,LC13,,13 - 5 height clearance (136),13.5
113,101986,32.879756,-111.762052,Low Clearance,Casa Grande,AZ,85122,LC13,,eastbound 13 - 4 height clearance (136),13.4
114,102100,33.401705,-110.791799,Low Clearance,Globe,AZ,85501,LC12,,12 - 6 height clearance (136),12.6
115,102150,34.31026,-112.56863,Low Clearance,Kirkland,AZ,86332,LC10,,10 - 5 height clearance (136),10.5
116,102268,33.392751000000004,-111.9686,Low Clearance,Phoenix,AZ,85042,LC15,,15 - 1 height clearance,15.1
117,102269,33.427305,-112.047783,Low Clearance,Phoenix,AZ,85034,LC14,,14 - 0 height clearance,14.0
118,102270,33.44399,-112.09577,Low Clearance,Phoenix,AZ,85034,LC12,,12 - 0 height clearance (136),12.0
119,102271,33.444137,-112.073771,Low Clearance,Phoenix,AZ,85034,LC14,,14 - 0 height clearance,14.0
120,102272,33.445077000000005,-112.074904,Low Clearance,Phoenix,AZ,85034,LC15,,15 - 1 height clearance,15.1
121,102273,33.58193,-112.116898,Low Clearance,Phoenix,AZ,85029,LC14,,"14 - 9 height clearance on west side, 15-1 on east side",14.9
122,102334,34.92838,-112.81603,Low Clearance,Prescott,AZ,86305,LC13,,13 - 6 height clearance,13.6
123,102362,33.619347999999995,-110.921837,Low Clearance,Roosevelt,AZ,85545,LC12,,12 - 2 height clearance (136),12.0
124,102394,34.764197,-111.656651,Low Clearance,Sedona,AZ,86351,LC13,,13 - 1 height clearance (136),13.1
125,102402,34.311771,-110.248716,Low Clearance,Show Low,AZ,85901,LC11,,11 - 2 height clearance (136),11.2
126,102417,33.30463,-111.08262,Low Clearance,Superior,AZ,85173,LC13,,13 - 6 height clearance,13.6
127,102426,33.410998,-111.909154,Low Clearance,Tempe,AZ,85281,LC15,,15 - 6 height clearance,15.6
128,102427,33.411024,-111.93984,Low Clearance,Tempe,AZ,85281,LC15,,15 - 2 height clearance,15.2
129,102464,32.10654,-110.99315,Low Clearance,Tucson,AZ,85746,LC15,,15 - 1 height clearance,15.1
130,102465,32.206783,-110.979608,Low Clearance,Tucson,AZ,85746,LC13,,13 - 6 height clearance,13.6
131,102466,32.225235999999995,-110.968664,Low Clearance,Tucson,AZ,85746,LC10,,10 - 10 height clearance (136),10.1
132,102467,32.22707,-110.9717,Low Clearance,Tucson,AZ,85746,LC13,,13 - 6 height clearance,13.6
133,102468,32.235827,-110.98155,Low Clearance,Tucson,AZ,85746,LC13,,13 - 10 height clearance,13.1
134,102469,32.25026,-110.99169,Low Clearance,Tucson,AZ,85746,LC14,,14 - 0 height clearance,14.0
135,102534,34.97582,-110.5255,Low Clearance,Winslow,AZ,86047,LC14,,14 - 0 height clearance,14.0
136,103622,34.105489,-118.80948,Low Clearance,Agoura Hills,CA,91301,LC14,,14 - 0 height clearance,14.0
137,103644,40.4406,-122.29964,Low Clearance,Anderson,CA,96007,LC11,,11 - 6 height clearance (136),11.6
138,103665,35.50098,-120.66242,Low Clearance,Atascadero,CA,93422,LC13,,13 - 2 height clearance (136),13.2
139,103672,38.90384,-121.0662,Low Clearance,Auburn,CA,95603,LC13,,13 - 7 height clearance,13.7
140,103673,38.92083,-121.0928,Low Clearance,Auburn,CA,95603,LC11,,11 - 3 height clearance (136),11.3
141,103773,37.84908,-122.29563,Low Clearance,Berkeley,CA,94710,LC15,,15 - 1 height clearance,15.1
142,103822,34.172304,-118.301973,Low Clearance,Burbank,CA,91502,LC14,,14 - 6 height clearance,14.6
143,103844,35.28751,-118.627,Low Clearance,Caliente,CA,93518,LC13,,13 - 11 height clearance,13.11
144,103855,37.29281,-121.93749,Low Clearance,Campbell,CA,95008,LC15,,15 - 2 height clearance,15.2
145,103856,37.29453,-121.93861,Low Clearance,Campbell,CA,95008,LC15,,15 - 1 height clearance,15.1
146,103920,34.204127,-117.676776,Low Clearance,Claremont,CA,91711,LC12,,12 - 0 height clearance (136),12.0
147,103950,34.00991,-118.15852,Low Clearance,Commerce,CA,90040,LC15,,15 - 0 height clearance,15.0
148,103956,37.96422000000001,-122.0308,Low Clearance,Concord,CA,94518,LC14,,14 - 4 height clearance,14.4
149,103998,38.29233,-121.63058,Low Clearance,Courtland,CA,95615,LC13,,13 - 0 height clearance (136),13.0
150,104014,38.54139,-121.73959,Low Clearance,Davis,CA,95616,LC13,,13 - 6 height clearance,13.6
151,104075,34.06123,-118.0126,Low Clearance,El Monte,CA,91732,LC15,,15 - 0 height clearance,15.0
152,104076,34.0633,-118.01562,Low Clearance,El Monte,CA,91732,LC13,,13 - 10 height clearance,13.1
153,104193,37.48768,-121.93189,Low Clearance,Fremont,CA,94536,LC15,,15 - 0 height clearance,15.0
154,104194,37.55969,-121.95565,Low Clearance,Fremont,CA,94536,LC14,,14 - 0 height clearance,14.0
155,104195,37.55985,-121.95566,Low Clearance,Fremont,CA,94536,LC15,,15 - 0 height clearance,15.0
156,104217,36.734389,-119.794345,Low Clearance,Fresno,CA,93706,LC13,,13 - 9 height clearance,13.9
157,104218,36.77766,-119.8011,Low Clearance,Fresno,CA,93706,LC13,,13 - 0 height clearance (136),13.0
158,104219,36.78149000000001,-119.80411,Low Clearance,Fresno,CA,93706,LC13,,13 - 6 height clearance,13.6
159,104275,34.12696,-118.26177,Low Clearance,Glendale,CA,91204,LC14,,14 - 9 height clearance,14.9
160,104317,38.57312,-122.8401,Low Clearance,Healdsburg,CA,95448,LC13,,13 - 8 height clearance,13.8
161,104334,34.10099,-117.10583,Low Clearance,Highland,CA,92346,LC11,,11 - 6 height clearance (136),11.6
162,104412,33.63216,-117.69972,Low Clearance,Lake Forest,CA,92630,LC7,,7 - 5 height clearance (136),7.5
163,104519,34.05635,-118.25281,Low Clearance,Los Angeles,CA,90012,LC12,,12 - 9 height clearance (136),12.9
164,104520,34.06735,-118.2393,Low Clearance,Los Angeles,CA,90012,LC13,,13 - 0 height clearance (136),13.0
165,104521,34.0775,-118.19398,Low Clearance,Los Angeles,CA,90012,LC12,,12 - 3 height clearance (136),12.3
166,104522,34.07792,-118.26057,Low Clearance,Los Angeles,CA,90012,LC14,,14 - 0 height clearance,14.0
167,104523,34.07885,-118.193,Low Clearance,Los Angeles,CA,90012,LC13,,13 - 10 height clearance,13.1
168,104524,34.123673,-118.300782,Low Clearance,Los Angeles,CA,90012,LC14,,14 - 0 height clearance,14.0
169,104525,34.1288,-118.48038,Low Clearance,Los Angeles,CA,90012,LC13,,13 - 6 height clearance,13.6
170,104526,,,Low Clearance,Los Angeles,CA,90023,LC13,,13 - 5 height clearance (136),13.5
171,104578,38.0052,-122.10203,Low Clearance,Martinez,CA,94553,LC13,,13 - 6 height clearance,13.6
172,104580,39.13739,-121.58404,Low Clearance,Marysville,CA,95901,LC14,,14 - 0 height clearance in center with 13 - 10 on the sides,14.0
173,104581,39.13849,-121.58422,Low Clearance,Marysville,CA,95901,LC11,,11 - 7 height clearance (136),11.7
174,104582,39.13955,-121.59954,Low Clearance,Marysville,CA,95901,LC14,,14 - 6 height clearance,14.6
175,104583,39.1396,-121.58437,Low Clearance,Marysville,CA,95901,LC10,,10 - 0 height clearance (136),10.0
176,104584,39.1498,-121.59773,Low Clearance,Marysville,CA,95901,LC13,,13 - 5 height clearance (136),13.5
177,104752,33.17347,-117.36513,Low Clearance,Oceanside,CA,92054,LC13,,13 - 0 height clearance (136),13.0
178,104770,34.06023,-117.65105,Low Clearance,Ontario,CA,91762,LC14,,14 - 7 height clearance,14.7
179,104771,34.061449,-117.65091,Low Clearance,Ontario,CA,91762,LC14,,14 - 10 height clearance,14.1
180,104790,34.608955,-117.341614,Low Clearance,Oro Grande,CA,92368,LC13,,13 - 11 height clearance,13.11
181,104794,39.50939,-121.55553,Low Clearance,Oroville,CA,95966,LC13,,13 - 4 height clearance (136),13.4
182,104795,39.51116,-121.55391000000002,Low Clearance,Oroville,CA,95966,LC13,,13 - 4 height clearance (136),13.4
183,104817,37.44286,-122.16453,Low Clearance,Palo Alto,CA,94301,LC14,,14 - 3 height clearance,14.3
184,104832,35.61775499999999,-120.688058,Low Clearance,Paso Robles,CA,93446,LC10,,10 - 8 height clearance (136),10.8
185,104856,40.243997,-124.122916,Low Clearance,Petrolia,CA,95558,LC13,,13 - 11 height clearance,13.11
186,104866,38.00816,-122.29276000000002,Low Clearance,Pinole,CA,94564,LC13,,13 - 6 height clearance,13.6
187,104902,40.0064,-121.2495,Low Clearance,Quincy,CA,95971,LC13,,13 - 0 height clearance (136),13.0
188,104961,37.92124,-122.38555,Low Clearance,Richmond,CA,94801,LC12,,12 - 7 height clearance (136),12.7
189,104969,38.96129000000001,-121.53256,Low Clearance,Rio Oso,CA,95674,LC13,,13 - 8 height clearance,13.8
190,104987,33.91946,-117.4241,Low Clearance,Riverside,CA,92503,LC11,,11 - 7 height clearance (136),11.7
191,104988,33.923,-117.42703,Low Clearance,Riverside,CA,92503,LC14,,14 - 11 height clearance,14.11
192,104989,33.977270000000004,-117.37304,Low Clearance,Riverside,CA,92503,LC13,,13 - 6 height clearance,13.6
193,105029,38.58686,-121.48142,Low Clearance,Sacramento,CA,95832,LC13,,13 - 10 height clearance,13.1
194,105105,33.381223,-117.577391,Low Clearance,San Clemente,CA,92672,LC15,,15 height clearance,15.0
195,105118,32.74579,-117.19244,Low Clearance,San Diego,CA,92110,LC13,,13 - 8 height clearance,13.8
196,105150,37.73925,-122.39468,Low Clearance,San Francisco,CA,94108,LC14,,14 - 6 height clearance,14.6
197,105151,37.7499,-122.39321,Low Clearance,San Francisco,CA,94108,LC14,,14 - 0 height clearance,14.0
198,105152,37.78045,-122.3992,Low Clearance,San Francisco,CA,94108,LC13,,13 - 9 height clearance,13.9
199,105153,37.79065,-122.39512,Low Clearance,San Francisco,CA,94108,LC13,,13 - 0 height clearance (136),13.0
200,105154,37.79277,-122.40758999999998,Low Clearance,San Francisco,CA,94108,LC13,,13 - 0 height clearance (136),13.0
201,105165,37.31037,-121.88279,Low Clearance,San Jose,CA,95126,LC14,,14 - 7 height clearance,14.7
202,105166,37.315749,-121.88762,Low Clearance,San Jose,CA,95126,LC14,,14 - 0 height clearance,14.0
203,105167,37.31796,-121.89075,Low Clearance,San Jose,CA,95126,LC13,,13 - 10 height clearance,13.1
204,105168,37.31814,-121.89303999999998,Low Clearance,San Jose,CA,95126,LC13,,13 - 6 height clearance,13.6
205,105169,37.31895,-121.89777,Low Clearance,San Jose,CA,95126,LC15,,15 - 0 height clearance,15.0
206,105170,37.32621,-121.90283,Low Clearance,San Jose,CA,95126,LC14,,14 - 2 height clearance,14.2
207,105171,37.33184,-121.90328999999998,Low Clearance,San Jose,CA,95126,LC14,,14 - 7 height clearance,14.7
208,105172,37.33459000000001,-121.9047,Low Clearance,San Jose,CA,95126,LC13,,13 - 8 height clearance,13.8
209,105199,37.71117,-122.14734,Low Clearance,San Leandro,CA,94578,LC14,,14 - 1 height clearance,14.1
210,105207,36.116906,-121.02814,Low Clearance,San Lucas,CA,93954,LC13,,13 - 6 height clearance,13.6
211,105221,37.5374,-122.29693,Low Clearance,San Mateo,CA,94401,LC15,,15 - 1 height clearance,15.1
212,105222,37.56992,-122.32577,Low Clearance,San Mateo,CA,94401,LC8,,8 - 6 height clearance (136),8.6
213,105223,37.57125,-122.32724,Low Clearance,San Mateo,CA,94401,LC11,,11 - 1 height clearance (136),11.1
214,105224,37.57252,-122.32874,Low Clearance,San Mateo,CA,94401,LC12,,12 - 1 height clearance (136),12.1
215,105225,37.57386,-122.33059,Low Clearance,San Mateo,CA,94401,LC13,,13 - 0 height clearance (136),13.0
216,105245,37.35822,-121.94736,Low Clearance,Santa Clara,CA,95051,LC14,,14 - 10 height clearance,14.1
217,105325,40.6818,-122.37529,Low Clearance,Shasta Lake,CA,96019,LC13,,13 - 9 height clearance,13.9
218,105371,37.93412,-121.42162,Low Clearance,Stockton,CA,95206,LC13,,13 - 5 height clearance (136),13.5
219,105372,37.94092,-121.27433,Low Clearance,Stockton,CA,95206,LC14,,14 - 11 height clearance,14.11
220,105373,37.95757,-121.27885,Low Clearance,Stockton,CA,95206,LC15,,15 - 0 height clearance,15.0
221,105447,34.314685,-118.135849,Low Clearance,Tujunga,CA,91042,LC12,,15 - 0 height clearance (136) in arch center with 12 ft on sides,15.0
222,105544,37.71105,-120.60967,Low Clearance,Waterford,CA,95386,LC13,,13 - 0 height clearance (136),13.0
223,105564,38.5163,-121.55278,Low Clearance,West Sacramento,CA,95691,LC12,,12 - 10 height clearance (136),12.1
224,105565,38.58284,-121.51694,Low Clearance,West Sacramento,CA,95691,LC13,,13 - 6 height clearance,13.6
225,105588,39.05261,-121.31995,Low Clearance,Wheatland,CA,95692,LC14,,14 - 6 height clearance,14.6
226,105665,39.20038,-106.94997,Low Clearance,Aspen,CO,81611,LC12,,12 - 7 height clearance (136),12.7
227,105666,39.20342,-106.94993999999998,Low Clearance,Aspen,CO,81611,LC12,,12 - 7 height clearance (136),12.7
228,105698,40.258204,-103.60046,Low Clearance,Brush,CO,80723,LC15,,15 - 3 height clearance,15.3
229,105699,40.26853,-103.62194,Low Clearance,Brush,CO,80723,LC13,,"At least 13 - 8 height clearance. Replaced and height is much higher, exact height unknown - used to be 13 - 4 height clearance (136)",13.8
230,105733,38.82082,-104.82421,Low Clearance,Colorado Springs,CO,80905,LC13,,13 - 0 height clearance (136),13.0
231,105734,38.82802,-104.81709,Low Clearance,Colorado Springs,CO,80905,LC13,,"13 - 1 height clearance (136), 13 - 1 going eastbound, going westbound, it is 13 - 3 in left lanes and 13-6 in right lane.",13.1
232,105735,38.85083,-104.83102,Low Clearance,Colorado Springs,CO,80905,LC12,,12 - 5 height clearance (136),12.5
233,105801,39.68759,-104.99067,Low Clearance,Denver,CO,80223,LC13,,13 - 11 height clearance,13.11
234,105802,39.71115,-104.99589,Low Clearance,Denver,CO,80223,LC15,,15 - 3 height clearance,15.3
235,105803,39.76926,-104.99742,Low Clearance,Denver,CO,80223,LC13,,13 - 1 height clearance (136),13.1
236,105804,39.77082,-104.97267,Low Clearance,Denver,CO,80223,LC13,,13 - 1 height clearance (136),13.1
237,105805,39.7769,-104.9791,Low Clearance,Denver,CO,80223,LC13,,13 - 8 height clearance,13.8
238,105806,39.78796,-104.96446,Low Clearance,Denver,CO,80223,LC13,,13 - 11 height clearance,13.11
239,105807,39.79408,-104.95641,Low Clearance,Denver,CO,80223,LC11,,11 - 4 height clearance (136),11.4
240,105808,39.80288,-104.9593,Low Clearance,Denver,CO,80223,LC13,,13 - 6 height clearance,13.6
241,105847,39.65992,-106.81577,Low Clearance,Edwards,CO,81632,LC13,,14 - 1 height clearance,14.1
242,105974,38.43157,-105.81267,Low Clearance,Howard,CO,81233,LC10,,10 - 10 height clearance (136),10.1
243,105981,40.80348,-103.16986,Low Clearance,Iliff,CO,80736,LC11,,11 - 0 height clearance (136) July 2014: User submitted,11.0
244,106090,38.254579,-104.606734,Low Clearance,Pueblo,CO,81003,LC13,,13 - 5 height clearance (136),13.5
245,106191,41.27564,-72.82935,Low Clearance,Branford,CT,6405,LC12,,12 - 11 height clearance (136),12.11
246,106197,41.67039000000001,-72.98509,Low Clearance,Bristol,CT,6010,LC13,,13 - 4 height clearance (136),13.4
247,106198,41.67112,-72.93656999999997,Low Clearance,Bristol,CT,6010,LC13,,13 - 6 height clearance,13.6
248,106199,41.67254000000001,-72.94274,Low Clearance,Bristol,CT,6010,LC11,,11 - 6 height clearance (136),11.6
249,106203,41.45645,-73.39317,Low Clearance,Brookfield,CT,6804,LC12,,12 - 1 height clearance (136),12.1
250,106206,41.27949,-72.52792,Low Clearance,Clinton,CT,6413,LC11,,11 - 9 height clearance (136),11.9
251,106207,41.279871,-72.53364300000001,Low Clearance,Clinton,CT,6413,LC11,,11 - 3 height clearance (136),11.3
252,106211,41.59148,-72.64864,Low Clearance,Cromwell,CT,6416,LC11,,11 - 9 height clearance (136),11.9
253,106220,41.0771,-73.47029,Low Clearance,Darien,CT,6820,LC11,,11 - 0 height clearance (136),11.0
254,106229,41.77613,-72.63899,Low Clearance,East Hartford,CT,6108,LC13,,13 - 6 height clearance,13.6
255,106236,41.14764,-73.25023,Low Clearance,Fairfield,CT,6824,LC10,,10 - 5 height clearance (136),10.5
256,106237,41.17998,-73.313,Low Clearance,Fairfield,CT,6824,LC14,,14 - 0 height clearance,14.0
257,106238,41.185372,-73.306898,Low Clearance,Fairfield,CT,6824,LC12,,12 - 6 height clearance (136),12.6
258,106239,41.19016,-73.299356,Low Clearance,Fairfield,CT,6824,LC9,,"9 - 9 height clearance, unsigned so not exact height (136)",9.9
259,106240,41.194326,-73.286063,Low Clearance,Fairfield,CT,6824,LC9,,"9 - 9 height clearance, unsigned so not exact height (136)",9.9
260,106246,41.036822,-73.675498,Low Clearance,Greenwich,CT,6831,LC9,,9 - 9 height clearance (136),9.9
261,106247,41.083864,-73.665243,Low Clearance,Greenwich,CT,6831,LC9,,"9 - 9 height clearance, unsigned so not exact height (136)",9.9
262,106248,41.094505,-73.63237,Low Clearance,Greenwich,CT,6831,LC9,,"9 - 9 height clearance, unsigned so not exact height (136)",9.9
263,106249,41.095637,-73.64882800000002,Low Clearance,Greenwich,CT,6831,LC9,,"9 - 9 height clearance, unsigned so not exact height (136)",9.9
264,106250,41.097335,-73.603617,Low Clearance,Greenwich,CT,6830,LC11,,11 - 7 height clearance (136),11.7
265,106251,41.1008,-73.59227,Low Clearance,Greenwich,CT,6830,LC10,,10 - 4 height clearance (136),10.4
266,106252,41.10091,-73.59184,Low Clearance,Greenwich,CT,6830,LC11,,11 - 4 height clearance (136),11.4
267,106256,41.341951,-72.038917,Low Clearance,Groton,CT,6340,LC10,,10 - 6 height clearance (136),10.6
268,106257,41.345987,-72.052836,Low Clearance,Groton,CT,6340,LC12,,12 - 9 height clearance (136),12.9
269,106258,41.363447,-72.08252,Low Clearance,Groton,CT,6340,LC13,,13 - 5 height clearance (136),13.5
270,106260,41.377819,-72.91461600000002,Low Clearance,Hamden,CT,6514,LC13,,13 - 6 height clearance,13.6
271,106266,41.73844,-72.66553,Low Clearance,Hartford,CT,6114,LC13,,13 - 8 height clearance,13.8
272,106269,41.60579,-72.0034,Low Clearance,Jewett City,CT,6351,LC12,,12 - 2 height clearance (136),12.0
273,106270,41.63448,-72.76638,Low Clearance,Kensington,CT,6037,LC12,,12 - 0 height clearance (136) Jun 2014: User submitted,12.0
274,106279,41.22399,-73.04972,Low Clearance,Milford,CT,6460,LC12,,12 - 2 height clearance (136),12.0
275,106280,41.22612,-73.0327,Low Clearance,Milford,CT,6460,LC12,,12 - 6 height clearance (136),12.6
276,106290,41.35473,-71.96903,Low Clearance,Mystic,CT,6355,LC12,,"12 - 8 height clearance (136), May 2014: User submitted",12.8
277,106294,41.11649,-73.49388,Low Clearance,New Canaan,CT,6840,LC13,,13 - 1 height clearance (136),13.1
278,106295,41.11657,-73.49344,Low Clearance,New Canaan,CT,6840,LC12,,12 - 1 height clearance (136),12.1
279,106296,41.11903,-73.51737,Low Clearance,New Canaan,CT,6840,LC12,,12 - 2 height clearance (136),12.0
280,106297,41.119097,-73.48307700000002,Low Clearance,New Canaan,CT,6840,LC9,,"9 - 9 height clearance, unsigned so not exact height (136)",9.9
281,106298,41.12251,-73.49831999999998,Low Clearance,New Canaan,CT,6840,LC11,,11 - 2 height clearance (136),11.2
282,106299,41.12303,-73.47381,Low Clearance,New Canaan,CT,6840,LC13,,13 - 1 height clearance (136),13.1
283,106300,41.12683,-73.46761,Low Clearance,New Canaan,CT,6840,LC13,,13 - 0 height clearance (136),13.0
284,106303,41.28452,-72.93065,Low Clearance,New Haven,CT,6511,LC14,,14 - 1 height clearance,14.1
285,106304,41.3137,-72.90568,Low Clearance,New Haven,CT,6511,LC12,,12 - 3 height clearance (136),12.3
286,106305,41.31477,-72.90405,Low Clearance,New Haven,CT,6511,LC12,,12 - 1 height clearance (136),12.1
287,106306,41.31603,-72.8772,Low Clearance,New Haven,CT,6511,LC12,,12 - 5 height clearance (136),12.5
288,106310,41.41704,-73.29626999999998,Low Clearance,Newtown,CT,6470,LC13,,"13 - 0 height clearance (136), June 2014: User submitted",13.0
289,106324,41.137619,-73.444925,Low Clearance,Norwalk,CT,6850,LC13,,13 - 0 height clearance (136),13.0
290,106325,41.145481,-73.417448,Low Clearance,Norwalk,CT,6851,LC9,,"9 - 9 height clearance, unsigned so not exact height (136)",9.9
291,106326,41.550342,-72.110951,Low Clearance,Norwich,CT,6360,LC11,,11 - 0 height clearance (136),11.0
292,106331,41.28758,-73.04132,Low Clearance,Orange,CT,6477,LC13,,13 - 10 height clearance,13.1
293,106346,41.10054,-73.58248,Low Clearance,Stamford,CT,6903,LC11,,11 - 4 height clearance (136),11.4
294,106347,41.10069,-73.58202,Low Clearance,Stamford,CT,6903,LC12,,12 - 6 height clearance (136),12.6
295,106348,41.10285,-73.5659,Low Clearance,Stamford,CT,6903,LC12,,14 - 2 height clearance in center but 11 - 11 on side lanes,14.2
296,106349,41.10635,-73.55943,Low Clearance,Stamford,CT,6903,LC12,,12 - 0 height clearance (136),12.0
297,106350,41.10676,-73.55912,Low Clearance,Stamford,CT,6903,LC12,,12 - 4 height clearance (136),12.4
298,106351,41.116227,-73.535112,Low Clearance,Stamford,CT,6903,LC9,,"9 - 9 height clearance, unsigned so not exact height (136)",9.9
299,106352,41.11892,-73.51773,Low Clearance,Stamford,CT,6903,LC12,,12 - 2 height clearance (136),12.0
300,106354,41.7845,-72.27964,Low Clearance,Storrs,CT,6268,LC12,,12 - 0 height clearance (136),12.0
301,106355,41.19412,-73.1316,Low Clearance,Stratford,CT,6615,LC13,,13 - 0 height clearance (136),13.0
302,106356,41.2031,-73.11783,Low Clearance,Stratford,CT,6615,LC11,,11 - 1 height clearance (136),11.1
303,106357,41.67234000000001,-72.9928,Low Clearance,Terryville,CT,6786,LC13,,13 - 3 height clearance (136),13.3
304,106369,41.2718,-72.96092,Low Clearance,West Haven,CT,6516,LC14,,14 - 0 height clearance,14.0
305,106370,41.27726,-72.95368,Low Clearance,West Haven,CT,6516,LC12,,12 - 5 height clearance (136),12.5
306,106371,41.27902,-72.95170999999998,Low Clearance,West Haven,CT,6516,LC10,,10 - 7 height clearance (136),10.7
307,106374,41.11806,-73.37491999999997,Low Clearance,Westport,CT,6851,LC10,,10 - 11 height clearance (136),10.11
308,106375,41.14886,-73.41149,Low Clearance,Westport,CT,6851,LC13,,13 - 2 height clearance (136),13.2
309,106376,41.15312,-73.40403,Low Clearance,Westport,CT,6851,LC12,,12 - 10 height clearance (136),12.1
310,106377,41.16339,-73.363291,Low Clearance,Westport,CT,6880,LC9,,"9 - 9 height clearance, unsigned so not exact height (136)",9.9
311,106378,41.16339,-73.383504,Low Clearance,Westport,CT,6880,LC9,,"9 - 9 height clearance, unsigned so not exact height (136)",9.9
312,106379,41.16383,-73.35793000000002,Low Clearance,Westport,CT,6851,LC13,,13 - 6 height clearance,13.6
313,106380,41.168414,-73.342177,Low Clearance,Westport,CT,6880,LC9,,"9 - 9 height clearance, unsigned so not exact height (136)",9.9
314,106384,41.85417,-72.64199,Low Clearance,Windsor,CT,6095,LC12,,12 - 5 height clearance (136),12.5
315,106389,41.31354,-73.02163,Low Clearance,Woodbridge,CT,6525,LC13,,13 - 6 height clearance,13.6
316,106390,38.84533,-77.00839,Low Clearance,Washington DC,DC,20037,LC13,,13 - 6 height clearance,13.6
317,106391,38.86868,-76.98997,Low Clearance,Washington DC,DC,20037,LC13,,13 - 9 height clearance,13.9
318,106392,38.87803,-77.03773000000002,Low Clearance,Washington DC,DC,20037,LC12,,12 - 3 height clearance (136),12.3
319,106393,38.88212,-77.00913,Low Clearance,Washington DC,DC,20037,LC13,,13 - 2 height clearance (136),13.2
320,106394,38.88345,-77.01371,Low Clearance,Washington DC,DC,20037,LC13,,13 - 2 height clearance (136),13.2
321,106395,38.88377,-77.01518,Low Clearance,Washington DC,DC,20037,LC13,,13 - 5 height clearance (136),13.5
322,106396,38.88408,-77.00905,Low Clearance,Washington DC,DC,20037,LC13,,13 - 2 height clearance (136),13.2
323,106397,38.88579,-77.02186999999998,Low Clearance,Washington DC,DC,20037,LC13,,13 - 6 height clearance,13.6
324,106398,38.90565,-77.00317,Low Clearance,Washington DC,DC,20037,LC13,,13 - 6 height clearance,13.6
325,106399,38.9071,-77.00901,Low Clearance,Washington DC,DC,20037,LC13,,13 - 7 height clearance,13.7
326,106400,38.90761,-77.00909,Low Clearance,Washington DC,DC,20037,LC13,,13 - 7 height clearance,13.7
327,106401,38.90794,-77.00234,Low Clearance,Washington DC,DC,20037,LC13,,13 - 10 height clearance,13.1
328,106402,38.92866,-77.01813,Low Clearance,Washington DC,DC,20037,LC13,,13 - 10 height clearance,13.1
329,106408,39.81032,-75.44037,Low Clearance,Claymont,DE,19703,LC14,,14 - 0 height clearance,14.0
330,106448,39.68368,-75.65629,Low Clearance,Newark,DE,19711,LC14,,14 - 1 height clearance,14.1
331,106449,39.69464,-75.6933,Low Clearance,Newark,DE,19711,LC14,,14 - 8 height clearance,14.8
332,106455,39.71198,-75.60916,Low Clearance,Newport,DE,19804,LC13,,13 - 2 height clearance (136),13.2
333,106491,29.779902000000003,-82.511424,Low Clearance,Alachua,FL,32615,LC13,,13 - 2 height clearance (136),13.2
334,106538,30.534551,-87.334508,Low Clearance,Cantonment,FL,32533,LC14,,14 - 4 height clearance,14.4
335,106581,26.28593,-80.25316,Low Clearance,Coral Springs,FL,33065,LC10,,10 - 4 height clearance (136),10.4
336,106613,25.79695,-80.32154,Low Clearance,Doral,FL,33122,LC13,,13 - 6 height clearance,13.6
337,106677,27.46988,-80.4431,Low Clearance,Fort Pierce,FL,34945,LC13,,13 - 4 height clearance (136),13.4
338,106726,28.099390000000003,-81.61684,Low Clearance,Haines City,FL,33844,LC14,,14 - 0 height clearance,14.0
339,106749,25.78533,-80.19233,Low Clearance,Homestead,FL,33132,LC13,,13 - 9 height clearance,13.9
340,106750,25.78691,-80.19691,Low Clearance,Homestead,FL,33132,LC13,,13 - 8 height clearance,13.8
341,106786,30.29203,-81.72064,Low Clearance,Jacksonville,FL,32244,LC12,,12 - 4 height clearance (136),12.4
342,106787,30.32892,-81.64582,Low Clearance,Jacksonville,FL,32244,LC11,,11 - 11 height clearance (136),11.11
343,106879,26.609070000000006,-80.07791,Low Clearance,Lake Worth,FL,33461,LC11,,11 - 6 height clearance (136),11.6
344,106880,26.60909,-80.07736,Low Clearance,Lake Worth,FL,33461,LC11,,11 - 5 height clearance (136),11.5
345,106889,28.04256,-81.96984,Low Clearance,Lakeland,FL,33815,LC12,,12 - 6 height clearance (136),12.6
346,106890,28.0484,-81.93921,Low Clearance,Lakeland,FL,33815,LC13,,13 - 6 height clearance,13.6
347,106961,28.61245,-81.36544,Low Clearance,Maitland,FL,32751,LC13,,13 - 4 height clearance (136),13.4
348,106990,25.78045,-80.31255999999998,Low Clearance,Miami,FL,33126,LC13,,13 - 8 height clearance,13.8
349,106991,25.78276,-80.23124,Low Clearance,Miami,FL,33126,LC13,,13 - 0 height clearance (136),13.0
350,106992,25.78316,-80.23326,Low Clearance,Miami,FL,33126,LC12,,12 - 4 height clearance (136),12.4
351,106993,25.78578,-80.18911999999997,Low Clearance,Miami,FL,33126,LC13,,13 - 8 height clearance,13.8
352,106994,25.78583,-80.25135999999998,Low Clearance,Miami,FL,33126,LC13,,13 - 6 height clearance,13.6
353,106995,25.78618,-80.19068,Low Clearance,Miami,FL,33126,LC14,,14 - 4 height clearance,14.4
354,106996,25.78648,-80.19404,Low Clearance,Miami,FL,33126,LC14,,14 - 2 height clearance,14.2
355,106997,25.78679,-80.19505,Low Clearance,Miami,FL,33126,LC13,,13 - 8 height clearance,13.8
356,106998,25.78697,-80.1956,Low Clearance,Miami,FL,33126,LC13,,13 - 8 height clearance,13.8
357,106999,25.78734,-80.19795,Low Clearance,Miami,FL,33126,LC15,,15 - 6 height clearance,15.6
358,107000,25.78745,-80.21099,Low Clearance,Miami,FL,33126,LC14,,14 - 2 height clearance,14.2
359,107001,25.78767,-80.19868000000002,Low Clearance,Miami,FL,33126,LC13,,13 - 8 height clearance,13.8
360,107002,25.78776,-80.21033,Low Clearance,Miami,FL,33126,LC14,,14 - 0 height clearance,14.0
361,107003,25.78798,-80.19931,Low Clearance,Miami,FL,33126,LC13,,13 - 8 height clearance,13.8
362,107004,25.7881,-80.19958000000003,Low Clearance,Miami,FL,33126,LC13,,13 - 8 height clearance,13.8
363,107005,25.81757,-80.20655,Low Clearance,Miami,FL,33126,LC14,,14 - 0 height clearance,14.0
364,107006,25.82409,-80.20685,Low Clearance,Miami,FL,33126,LC14,,14 - 0 height clearance,14.0
365,107007,25.82497,-80.20687,Low Clearance,Miami,FL,33126,LC14,,14 - 0 height clearance,14.0
366,107008,25.84342,-80.20673000000002,Low Clearance,Miami,FL,33126,LC13,,13 - 0 height clearance (136),13.0
367,107009,25.9131,-80.21038,Low Clearance,Miami,FL,33126,LC13,,13 - 8 height clearance,13.8
368,107031,25.7757,-80.14097,Low Clearance,Miami Beach,FL,33139,LC11,,11 - 8 height clearance (136),11.8
369,107032,25.92657,-80.24467,Low Clearance,Miami Gardens,FL,33056,LC14,,14 - 1 height clearance,14.1
370,107033,25.92974,-80.21066,Low Clearance,Miami Gardens,FL,33056,LC14,,14 - 0 height clearance,14.0
371,107035,29.42906,-82.26290999999998,Low Clearance,Micanopy,FL,32667,LC13,,13 - 6 height clearance,13.6
372,107070,29.021104,-80.924412,Low Clearance,New Smyrna Beach,FL,32168,LC11,,11 - 8 height clearance (136),11.8
373,107146,28.51243,-81.3928,Low Clearance,Orlando,FL,32805,LC14,,14 - 1 height clearance,14.1
374,107147,28.57494,-81.37595999999998,Low Clearance,Orlando,FL,32805,LC13,,13 - 8 height clearance,13.8
375,107220,30.420461,-87.193895,Low Clearance,Pensacola,FL,32501,LC10,,10 - 8 height clearance (136),10.8
376,107221,30.4401,-87.21668000000003,Low Clearance,Pensacola,FL,32503,LC13,,13 - 8 height clearance,13.8
377,107371,30.43794,-84.27832,Low Clearance,Tallahassee,FL,32301,LC13,,13 - 4 height clearance (136),13.4
378,107372,30.4383,-84.27632,Low Clearance,Tallahassee,FL,32301,LC13,,13 - 4 height clearance (136),13.4
379,107373,30.45547,-84.34353,Low Clearance,Tallahassee,FL,32301,LC14,,14 - 0 height clearance,14.0
380,107403,27.95977,-82.45534,Low Clearance,Tampa,FL,33602,LC14,,14 - 0 height clearance,14.0
381,107404,28.01068,-82.45424,Low Clearance,Tampa,FL,33602,LC14,,14 - 4 height clearance,14.4
382,107405,28.01613,-82.4552,Low Clearance,Tampa,FL,33602,LC13,,13 - 8 height clearance,13.8
383,107430,28.12991,-82.73794000000002,Low Clearance,Tarpon Springs,FL,34689,LC13,,13 - 8 height clearance,13.8
384,107454,26.67593,-80.05875999999998,Low Clearance,West Palm Beach,FL,33405,LC10,,10 - 6 height clearance (136),10.6
385,107500,28.58868,-81.37733,Low Clearance,Winter Park,FL,32789,LC13,,13 - 4 height clearance (136),13.4
386,107501,28.58947,-81.37827,Low Clearance,Winter Park,FL,32789,LC13,,13 - 4 height clearance (136),13.4
387,107502,28.59601,-81.38566999999998,Low Clearance,Winter Park,FL,32789,LC13,,13 - 8 height clearance,13.8
388,107503,28.61211,-81.36528,Low Clearance,Winter Park,FL,32789,LC13,,13 - 4 height clearance (136),13.4
389,107534,31.57652,-84.14066,Low Clearance,Albany,GA,31705,LC12,,12 - 1 height clearance (136),12.1
390,107555,33.953070000000004,-83.37091,Low Clearance,Athens,GA,30605,LC13,,13 - 4 height clearance (136),13.4
391,107556,33.965937700000005,-83.3783026,Low Clearance,Athens,GA,30601,LC9,,9 - 0 height clearance (136),9.0
392,107557,33.967164200000006,-83.38524129999998,Low Clearance,Athens,GA,30601,LC8,,8 - 7 height clearance (136),8.7
393,107573,33.72831,-84.36379000000002,Low Clearance,Atlanta,GA,30314,LC12,,12 - 10 height clearance (136),12.1
394,107574,33.73673,-84.4038,Low Clearance,Atlanta,GA,30314,LC13,,13 - 1 height clearance (136),13.1
395,107575,33.738170000000004,-84.40544,Low Clearance,Atlanta,GA,30314,LC9,,9 - 10 height clearance (136),9.1
396,107576,33.738209999999995,-84.41261,Low Clearance,Atlanta,GA,30314,LC13,,13 - 6 height clearance,13.6
397,107577,33.743390000000005,-84.40831,Low Clearance,Atlanta,GA,30314,LC14,,14 - 6 height clearance,14.6
398,107578,33.74882,-84.37955,Low Clearance,Atlanta,GA,30314,LC13,,13 - 1 height clearance (136),13.1
399,107579,33.74925,-84.37666,Low Clearance,Atlanta,GA,30314,LC13,,13 - 4 height clearance (136),13.4
400,107580,33.75164,-84.37114,Low Clearance,Atlanta,GA,30314,LC13,,13 - 8 height clearance,13.8
401,107581,33.75357,-84.42591999999998,Low Clearance,Atlanta,GA,30314,LC12,,12 - 8 height clearance (136),12.8
402,107582,33.754459999999995,-84.36653000000003,Low Clearance,Atlanta,GA,30314,LC13,,13 - 1 height clearance (136),13.1
403,107583,33.76342,-84.40375,Low Clearance,Atlanta,GA,30314,LC13,,13 - 1 height clearance (136),13.1
404,107584,33.76426,-84.40465999999998,Low Clearance,Atlanta,GA,30314,LC11,,11 - 0 height clearance (136),11.0
405,107585,33.78862,-84.40759,Low Clearance,Atlanta,GA,30314,LC14,,14 - 1 height clearance,14.1
406,107586,33.818259999999995,-84.4631,Low Clearance,Atlanta,GA,30314,LC13,,13 - 4 height clearance (136),13.4
407,107587,33.82097,-84.37266,Low Clearance,Atlanta,GA,30314,LC13,,13 - 6 height clearance,13.6
408,107588,33.82142,-84.44702,Low Clearance,Atlanta,GA,30314,LC12,,12 - 0 height clearance (136),12.0
409,107617,33.45902,-82.00867,Low Clearance,Augusta,GA,30904,LC10,,10 - 5 height clearance (136),10.5
410,107640,31.317120000000006,-82.2234,Low Clearance,Blackshear,GA,31516,LC9,,9 - 8 height clearance (136),9.8
411,107663,33.80232,-85.18822,Low Clearance,Buchanan,GA,30113,LC13,,13 - 10 height clearance,13.1
412,107673,32.199337,-83.906586,Low Clearance,Byromville,GA,31007,LC14,,14 - 4 height clearance,14.4
413,107708,34.18249,-84.81596,Low Clearance,Cartersville,GA,30121,LC13,,13 - 8 height clearance,13.8
414,107709,34.18627,-84.80185,Low Clearance,Cartersville,GA,30121,LC10,,10 - 0 height clearance (136),10.0
415,107727,34.00399,-85.24384,Low Clearance,Cedartown,GA,30125,LC11,,11 - 2 height clearance (136),11.2
416,107731,34.84879,-84.75262,Low Clearance,Chatsworth,GA,30705,LC10,,10 - 1 height clearance (136),10.1
417,107754,32.40469,-84.91111,Low Clearance,Columbus,GA,31901,LC13,,13 - 8 height clearance,13.8
418,107755,32.45095,-84.96137,Low Clearance,Columbus,GA,31901,LC11,,11 - 2 height clearance (136),11.2
419,107756,32.46602,-84.9825,Low Clearance,Columbus,GA,31901,LC9,,9 - 5 height clearance (136),9.5
420,107757,32.477470000000004,-84.99172,Low Clearance,Columbus,GA,31901,LC11,,11 - 1 height clearance (136),11.1
421,107783,31.97066,-83.7849,Low Clearance,Cordele,GA,31015,LC11,,11 - 10 height clearance (136),11.1
422,107784,31.97396,-83.78497,Low Clearance,Cordele,GA,31015,LC12,,12 - 2 height clearance (136),12.0
423,107791,34.51063,-83.52776999999998,Low Clearance,Cornelia,GA,30531,LC12,,12 - 4 height clearance (136),12.4
424,107798,33.92865,-84.8951,Low Clearance,Dallas,GA,30132,LC13,,13 - 0 height clearance (136),13.0
425,107832,33.77292,-84.28797,Low Clearance,Decatur,GA,30030,LC13,,13 - 10 height clearance,13.1
426,107833,33.7734743,-84.30214670000002,Low Clearance,Decatur,GA,30030,LC14,,14 - 6 height clearance,14.6
427,107848,33.77415870000001,-84.31547990000001,Low Clearance,Druid Hills,GA,30033,LC10,,10 - 0 height clearance (136),10.0
428,107867,33.32719,-83.38725,Low Clearance,Eatonton,GA,31024,LC7,,7 - 4 height clearance (136),7.4
429,107876,33.56649,-84.58109,Low Clearance,Fairburn,GA,30213,LC10,,10 - 0 height clearance (136),10.0
430,107879,31.716057,-83.259842,Low Clearance,Fitzgerald,GA,31750,LC14,,14 - 0 height clearance,14.0
431,107907,33.12822,-84.5721,Low Clearance,Gay,GA,30218,LC11,,11 - 6 height clearance (136),11.6
432,107910,33.25004000000001,-84.26225,Low Clearance,Griffin,GA,30223,LC13,,13 - 6 height clearance,13.6
433,107911,33.250662,-84.262096,Low Clearance,Griffin,GA,30223,LC14,,14 - 0 height clearance,14.0
434,107914,33.429810499999995,-82.1870114,Low Clearance,Grovetown,GA,30813,LC15,,15 - 5 height clearance,15.5
435,107950,31.60854,-81.87897,Low Clearance,Jesup,GA,31545,LC9,,9 - 6 height clearance (136),9.6
436,107970,33.02937,-85.03456,Low Clearance,La Grange,GA,30240,LC12,,12 - 8 height clearance (136),12.8
437,107971,33.02976,-85.03369,Low Clearance,La Grange,GA,30240,LC12,,12 - 10 height clearance (136),12.1
438,108019,32.825322,-83.630676,Low Clearance,Macon,GA,31201,LC10,,10 - 6 height clearance (136),10.6
439,108020,32.82785,-83.61851999999998,Low Clearance,Macon,GA,31201,LC13,,13 - 6 height clearance,13.6
440,108021,32.831927,-83.624607,Low Clearance,Macon,GA,31201,LC14,,14 - 8 height clearance,14.8
441,108022,32.841016,-83.65583000000002,Low Clearance,Macon,GA,31204,LC14,,14 - 0 height clearance,14.0
442,108029,33.597863200000006,-83.47046970000002,Low Clearance,Madison,GA,30650,LC13,,13 - 6 height clearance,13.6
443,108030,33.59799,-83.40471,Low Clearance,Madison,GA,30650,LC9,,9 - 4 height clearance (136),9.4
444,108060,33.08224000000001,-83.23789000000002,Low Clearance,Milledgeville,GA,31061,LC11,,11 - 1 height clearance (136),11.1
445,108064,33.599470000000004,-84.33284,Low Clearance,Morrow,GA,30260,LC15,,15 - 0 height clearance,15.0
446,108076,34.518162100000005,-83.5022788,Low Clearance,Mt Airy,GA,30563,LC10,,10 - 2 height clearance (136),10.2
447,108079,33.42582,-84.86043000000002,Low Clearance,Newnan,GA,30263,LC11,,11 - 0 height clearance (136),11.0
448,108104,32.88435,-84.81896,Low Clearance,Pine Mountain,GA,31822,LC12,,12 - 0 height clearance (136),12.0
449,108105,32.91876,-84.97651,Low Clearance,Pine Mountain,GA,31822,LC13,,13 - 6 height clearance,13.6
450,108135,34.91485,-85.10736999999997,Low Clearance,Ringgold,GA,30736,LC11,,11 - 6 height clearance (136),11.6
451,108136,34.97561,-85.197,Low Clearance,Ringgold,GA,30736,LC13,,13 - 10 height clearance,13.1
452,108155,34.2579,-85.15886,Low Clearance,Rome,GA,30161,LC11,,11 - 1 height clearance (136),11.1
453,108156,34.271011,-85.150566,Low Clearance,Rome,GA,30161,LC12,,12 - 0 height clearance (136),12.0
454,108163,34.33995,-84.71743000000002,Low Clearance,Rydal,GA,30171,LC12,,12 - 0 height clearance (136),12.0
455,108170,32.06113,-81.0897,Low Clearance,Savannah,GA,31401,LC13,,13 - 0 height clearance (136),13.0
456,108171,32.06499,-81.08771999999998,Low Clearance,Savannah,GA,31401,LC13,,13 - 0 height clearance (136),13.0
457,108172,32.0796945,-81.1122341,Low Clearance,Savannah,GA,31415,LC13,,13 - 3 height clearance (136),13.3
458,108187,33.82777,-84.45935,Low Clearance,Smyrna,GA,30080,LC14,,14 - 0 height clearance,14.0
459,108188,33.84914000000001,-84.55893,Low Clearance,Smyrna,GA,30080,LC7,,7 - 6 height clearance (136),7.6
460,108193,32.401070000000004,-82.63145,Low Clearance,Soperton,GA,30457,LC13,,13 - 10 height clearance,13.1
461,108194,32.3783693,-81.3213329,Low Clearance,Springfield,GA,31329,LC13,,13 - 7 height clearance,13.7
462,108196,33.2176065,-82.4473933,Low Clearance,Stapleton,GA,30823,LC14,,14 - 1 height clearance,14.1
463,108201,33.81086079999999,-84.1724309,Low Clearance,Stone Mountain,GA,30083,LC12,,12 - 0 height clearance (136),12.0
464,108202,33.814029999999995,-84.17758,Low Clearance,Stone Mountain,GA,30083,LC12,,12 - 6 height clearance (136),12.6
465,108205,34.47413,-85.3542,Low Clearance,Summerville,GA,30747,LC7,,7 - 1 height clearance (136),7.1
466,108209,32.686640000000004,-81.579711,Low Clearance,Sylvania,GA,30467,LC13,,13 - 4 height clearance (136),13.4
467,108211,32.682284,-84.53806999999998,Low Clearance,Talbotton,GA,31827,LC14,,14 - 9 height clearance,14.9
468,108229,30.83888,-83.99063000000002,Low Clearance,Thomasville,GA,31792,LC10,,10 - 0 height clearance (136),10.0
469,108247,34.578191,-83.33310300000002,Low Clearance,Toccoa,GA,30577,LC13,,13 - 6 height clearance,13.6
470,108260,33.61603,-83.07901,Low Clearance,Union Point,GA,30669,LC13,,13 - 6 height clearance,13.6
471,108290,32.900578,-84.695734,Low Clearance,Warm Springs,GA,31830,LC13,,13 - 8 height clearance,13.8
472,108294,33.406869,-82.66830949999998,Low Clearance,Warrenton,GA,30828,LC13,,13 - 6 height clearance,13.6
473,108295,33.40948,-82.64143,Low Clearance,Warrenton,GA,30828,LC13,,13 - 8 height clearance,13.8
474,108297,33.80296,-83.3637,Low Clearance,Watkinsville,GA,30677,LC11,,11 - 2 height clearance (136),11.2
475,108301,31.211845,-82.355568,Low Clearance,Waycross,GA,31501,LC14,,14 - 0 height clearance,14.0
476,108302,31.21253,-82.35389,Low Clearance,Waycross,GA,31501,LC11,,11 - 10 height clearance (136),11.1
477,108303,31.217387,-82.348658,Low Clearance,Waycross,GA,31501,LC14,,14 - 0 height clearance,14.0
478,108305,33.09825,-82.01794,Low Clearance,Waynesboro,GA,30830,LC13,,13 - 4 height clearance (136),13.4
479,108311,34.963263,-85.417674,Low Clearance,Wildwood,GA,30757,LC8,,8 - 0 height clearance (136),8.0
480,108316,33.99234000000001,-83.72419000000002,Low Clearance,Winder,GA,30680,LC13,,13 - 8 height clearance,13.8
481,108351,42.75023,-92.81016,Low Clearance,Allison,IA,50602,LC13,,"13 - 6 height clearance, Feb 2013: Bridge removed after arson damage. Could be rebuilt someday since it is part of a trail system.",13.6
482,108361,42.02453,-93.62024,Low Clearance,Ames,IA,50010,LC14,,14 - 0 height clearance,14.0
483,108362,42.0281863,-93.6322004,Low Clearance,Ames,IA,50010,LC13,,13 - 5 height clearance (136),13.5
484,108363,42.0302168,-93.6383131,Low Clearance,Ames,IA,50010,LC11,,11 - 6 height clearance (136),11.6
485,108373,42.089705,-94.995024,Low Clearance,Arcadia,IA,51430,LC14,,14 - 0 height clearance,14.0
486,108375,43.39716420000001,-94.513885,Low Clearance,Armstrong,IA,50514,LC13,,13 - 11 height clearance,13.11
487,108379,41.4164429,-95.0393656,Low Clearance,Atlantic,IA,50022,LC14,,14 - 4 height clearance,14.4
488,108392,42.0652,-93.87388,Low Clearance,Boone,IA,50036,LC13,,13 - 0 height clearance (136),13.0
489,108396,41.23639,-91.88912,Low Clearance,Brighton,IA,52540,LC12,,12 - 4 height clearance (136),12.4
490,108408,42.09952,-94.9348,Low Clearance,Carroll,IA,51401,LC11,,11 - 0 height clearance (136),11.0
491,108419,41.95618,-91.52671,Low Clearance,Cedar Rapids,IA,52403,LC14,,14 - 0 height clearance,14.0
492,108420,41.97294,-91.58034,Low Clearance,Cedar Rapids,IA,52403,LC12,,12 - 0 height clearance (136),12.0
493,108435,42.21911,-91.82342,Low Clearance,Center Point,IA,52213,LC14,,14 - 0 height clearance,14.0
494,108438,41.0093,-93.30097,Low Clearance,Chariton,IA,50049,LC12,,12 - 0 height clearance (136),12.0
495,108439,41.01045,-93.30748,Low Clearance,Chariton,IA,50049,LC15,,15 - 6 height clearance,15.6
496,108440,41.01251,-93.301,Low Clearance,Chariton,IA,50049,LC11,,11 - 1 height clearance (136),11.1
497,108441,41.01435770000001,-93.3097396,Low Clearance,Chariton,IA,50049,LC13,,13 - 0 height clearance (136),13.0
498,108442,41.01495,-93.30099,Low Clearance,Chariton,IA,50049,LC11,,11 - 4 height clearance (136),11.4
499,108454,41.8329989,-90.1930109,Low Clearance,Clinton,IA,52732,LC13,,13 - 0 height clearance (136),13.0
500,108455,41.8361943,-90.1882738,Low Clearance,Clinton,IA,52732,LC14,,14 - 0 height clearance,14.0
501,108458,42.2792099,-91.5353603,Low Clearance,Coggon,IA,52218,LC14,,14 - 0 height clearance,14.0
502,108462,42.0189713,-93.3094185,Low Clearance,Colo,IA,50056,LC14,,14 - 1 height clearance,14.1
503,108463,42.02235,-93.30942,Low Clearance,Colo,IA,50056,LC13,,13 - 8 height clearance,13.8
504,108468,40.76498,-93.31807,Low Clearance,Corydon,IA,50060,LC13,,13 - 3 height clearance (136),13.3
505,108472,41.24661,-95.85371,Low Clearance,Council Bluffs,IA,51501,LC13,,13 - 10 height clearance,13.1
506,108473,41.2805473,-95.7725567,Low Clearance,Council Bluffs,IA,51503,LC14,,14 - 2 height clearance,14.2
507,108474,41.2845466,-95.863572,Low Clearance,Council Bluffs,IA,51501,LC8,,8 - 8 height clearance (136),8.8
508,108475,41.2845753,-95.8633705,Low Clearance,Council Bluffs,IA,51503,LC8,,8 - 8 height clearance (136),8.8
509,108476,41.2895863,-95.8598623,Low Clearance,Council Bluffs,IA,51503,LC9,,9 - 2 height clearance (136),9.2
510,108487,41.0495699,-94.3791703,Low Clearance,Creston,IA,50801,LC15,,15 - 5 height clearance,15.5
511,108488,41.054214,-94.372333,Low Clearance,Creston,IA,50801,LC13,,13 - 10 height clearance,13.1
512,108489,41.057139,-94.351604,Low Clearance,Creston,IA,50801,LC11,,11 - 6 height clearance (136),11.6
513,108490,41.05794,-94.35158,Low Clearance,Creston,IA,50801,LC12,,12 - 4 height clearance (136),12.4
514,108491,41.05816220000001,-94.3368472,Low Clearance,Creston,IA,50801,LC13,,13 - 6 height clearance,13.6
515,108496,41.5210423,-90.568373,Low Clearance,Davenport,IA,52801,LC13,,13 - 11 height clearance,13.11
516,108497,41.5235,-90.57112,Low Clearance,Davenport,IA,52806,LC13,,13 - 0 height clearance (136),13.0
517,108498,41.52432,-90.57258,Low Clearance,Davenport,IA,52806,LC11,,11 - 3 height clearance (136),11.3
518,108499,41.52456,-90.57847,Low Clearance,Davenport,IA,52806,LC10,,10 - 1 height clearance (136),10.1
519,108500,41.52456,-90.57555,Low Clearance,Davenport,IA,52806,LC10,,10 - 0 height clearance (136),10.0
520,108501,41.52456,-90.57702,Low Clearance,Davenport,IA,52806,LC11,,11 - 8 height clearance (136),11.8
521,108502,41.52456,-90.57407,Low Clearance,Davenport,IA,52806,LC11,,11 - 8 height clearance (136),11.8
522,108504,41.52753,-90.60703,Low Clearance,Davenport,IA,52806,LC13,,13 - 0 height clearance (136),13.0
523,108506,41.53478,-90.54708,Low Clearance,Davenport,IA,52806,LC8,,8 - 10 height clearance (136),8.1
524,108507,41.55868,-90.64892,Low Clearance,Davenport,IA,52806,LC13,,13 - 10 height clearance,13.1
525,108538,41.5795,-93.66325,Low Clearance,Des Moines,IA,50312,LC11,,11 - 4 height clearance (136),11.4
526,108539,41.59523,-93.61843,Low Clearance,Des Moines,IA,50312,LC12,,12 - 4 height clearance (136),12.4
527,108540,41.60045,-93.58255,Low Clearance,Des Moines,IA,50312,LC13,,13 - 6 height clearance,13.6
528,108541,41.61406,-93.62004,Low Clearance,Des Moines,IA,50312,LC8,,8 - 10 height clearance (136),8.1
529,108542,41.62776,-93.58509,Low Clearance,Des Moines,IA,50312,LC14,,14 - 5 height clearance,14.5
530,108543,41.64048,-93.62006,Low Clearance,Des Moines,IA,50312,LC13,,13 - 4 height clearance (136),13.4
531,108563,43.27199,-96.23779,Low Clearance,Doon,IA,51235,LC13,,13 - 4 height clearance (136),13.4
532,108572,42.4995391,-90.65340340000002,Low Clearance,Dubuque,IA,52001,LC10,,10 - 9 height clearance (136),10.9
533,108581,42.48545,-91.17389,Low Clearance,Dyersville,IA,52040,LC13,,13 - 6 height clearance,13.6
534,108597,41.0111876,-91.964912,Low Clearance,Fairfield,IA,52556,LC14,,14 - 1 height clearance,14.1
535,108605,42.49324,-94.1797,Low Clearance,Fort Dodge,IA,50501,LC12,,12 - 6 height clearance (136),12.6
536,108606,42.49517150000001,-94.1797421,Low Clearance,Fort Dodge,IA,50501,LC11,,11 - 8 height clearance (136),11.8
537,108607,42.49876,-94.18601,Low Clearance,Fort Dodge,IA,50501,LC11,,11 - 8 height clearance (136),11.8
538,108608,42.51071,-94.20454,Low Clearance,Fort Dodge,IA,50501,LC11,,11 - 6 height clearance (136),11.6
539,108613,41.0294865,-95.7472038,Low Clearance,Glenwood,IA,51534,LC12,,12 - 6 height clearance (136),12.6
540,108614,41.03825,-95.7413,Low Clearance,Glenwood,IA,51534,LC13,,13 - 4 height clearance (136),13.4
541,108615,41.042,-95.73625,Low Clearance,Glenwood,IA,51534,LC11,,11 - 1 height clearance (136),11.1
542,108616,41.0472261,-95.7235661,Low Clearance,Glenwood,IA,51534,LC13,,13 - 11 height clearance,13.11
543,108617,41.0520838,-95.6804333,Low Clearance,Glenwood,IA,51534,LC13,,13 - 9 height clearance,13.9
544,108618,41.0523065,-95.7124249,Low Clearance,Glenwood,IA,51534,LC14,,14 - 6 height clearance,14.6
545,108619,42.05409,-94.68303,Low Clearance,Glidden,IA,51443,LC14,,14 - 0 height clearance,14.0
546,108623,41.74031,-92.72163,Low Clearance,Grinnell,IA,50112,LC8,,8 - 4 height clearance (136),8.4
547,108624,41.78046,-92.72727,Low Clearance,Grinnell,IA,50112,LC13,,13 - 7 height clearance,13.7
548,108636,43.220414,-96.1771755,Low Clearance,Hull,IA,51239,LC13,,13 - 9 height clearance,13.9
549,108637,43.22043789999999,-96.1770745,Low Clearance,Hull,IA,51239,LC13,,13 - 9 height clearance,13.9
550,108638,43.236307,-96.177501,Low Clearance,Hull,IA,51239,LC13,,13 - 9 height clearance,13.9
551,108639,43.2363403,-96.1773941,Low Clearance,Hull,IA,51239,LC13,,13 - 9 height clearance,13.9
552,108649,41.66124,-91.53932,Low Clearance,Iowa City,IA,52246,LC10,,10 - 4 height clearance (136),10.4
553,108650,41.66637,-91.5577,Low Clearance,Iowa City,IA,52246,LC13,,13 - 4 height clearance (136),13.4
554,108660,41.3208673,-93.0913103,Low Clearance,Knoxville,IA,50138,LC11,,11 - 6 height clearance (136),11.6
555,108665,41.58254,-90.38938,Low Clearance,Le Claire,IA,52753,LC14,,14 - 0 height clearance,14.0
556,108670,40.9960007,-91.76044509999998,Low Clearance,Lockridge,IA,52635,LC13,,13 - 0 height clearance (136),13.0
557,108674,43.06033,-91.46385,Low Clearance,Luana,IA,52156,LC12,,12 - 0 height clearance (136),12.0
558,108675,41.0155938,-95.6086193,Low Clearance,Malvern,IA,51551,LC13,,13 - 0 height clearance (136),13.0
559,108686,42.0522793,-92.95332109999998,Low Clearance,Marshalltown,IA,50158,LC12,,12 - 9 height clearance (136),12.9
560,108689,43.14242539999999,-93.2010744,Low Clearance,Mason City,IA,50401,LC14,,14 - 5 height clearance,14.5
561,108690,43.1428734,-93.2092544,Low Clearance,Mason City,IA,50401,LC13,,13 - 6 height clearance,13.6
562,108691,43.15186,-93.19014,Low Clearance,Mason City,IA,50401,LC12,,12 - 0 height clearance (136),12.0
563,108692,43.16059,-93.19649,Low Clearance,Mason City,IA,50401,LC12,,12 - 0 height clearance (136),12.0
564,108693,43.16351,-93.19679,Low Clearance,Mason City,IA,50401,LC13,,13 - 8 height clearance,13.8
565,108694,43.1971795,-93.2048804,Low Clearance,Mason City,IA,50401,LC13,,13 - 2 height clearance (136),13.2
566,108695,43.20552,-93.08866,Low Clearance,Mason City,IA,50401,LC13,,13 - 3 height clearance (136),13.3
567,108704,41.5178686,-94.3676431,Low Clearance,Menlo,IA,50164,LC14,,14 - 0 height clearance,14.0
568,108705,40.84802,-93.30891,Low Clearance,Millerton,IA,50165,LC13,,13 - 1 height clearance (136),13.1
569,108707,41.49846,-95.74604,Low Clearance,Missouri Valley,IA,51555,LC14,,14 - 0 height clearance,14.0
570,108708,41.4991956,-95.8952092,Low Clearance,Missouri Valley,IA,51555,LC11,,11 - 1 height clearance (136),11.1
571,108709,41.4992525,-95.8955277,Low Clearance,Missouri Valley,IA,51555,LC11,,11 - 0 height clearance in center with sides curving down sharply (136),11.0
572,108710,41.52229000000001,-95.88508,Low Clearance,Missouri Valley,IA,51555,LC12,,12 - 6 height clearance (136),12.6
573,108721,42.4460186,-94.2917387,Low Clearance,Moorland,IA,50566,LC14,,14 - 2 height clearance,14.2
574,108722,40.73984650000001,-92.7221962,Low Clearance,Moulton,IA,52572,LC14,,14 - 3 height clearance,14.3
575,108724,40.9845618,-91.6822224,Low Clearance,Mt Pleasant,IA,52641,LC12,,12 - 6 height clearance (136),12.6
576,108726,41.98425,-91.51386,Low Clearance,Mt Vernon,IA,52314,LC11,,11 - 6 height clearance (136),11.6
577,108733,42.0214671,-93.3904239,Low Clearance,Nevada,IA,50201,LC13,,13 - 6 height clearance,13.6
578,108734,42.025825,-93.46282,Low Clearance,Nevada,IA,50201,LC13,,13 - 2 height clearance (136),13.2
579,108735,42.02586,-93.46279,Low Clearance,Nevada,IA,50201,LC13,,13 - 1 height clearance (136),13.1
580,108739,41.42261,-92.6451,Low Clearance,New Sharon,IA,50207,LC13,,13 - 8 height clearance,13.8
581,108742,41.69933,-93.06834,Low Clearance,Newton,IA,50208,LC13,,13 - 10 height clearance,13.1
582,108752,42.67832,-91.91918,Low Clearance,Oelwein,IA,50662,LC9,,9 - 9 height clearance (136),9.9
583,108765,41.0337843,-93.7715484,Low Clearance,Osceola,IA,50213,LC10,,10 - 10 height clearance (136),10.1
584,108774,41.00521,-92.37608,Low Clearance,Ottumwa,IA,52501,LC12,,12 - 0 height clearance (136),12.0
585,108775,41.0068,-92.38944,Low Clearance,Ottumwa,IA,52501,LC12,,12 - 2 height clearance (136),12.0
586,108776,41.03195,-92.42974,Low Clearance,Ottumwa,IA,52501,LC12,,12 - 1 height clearance (136),12.1
587,108786,41.33488,-93.28182,Low Clearance,Pleasantville,IA,50225,LC12,,12 - 1 height clearance (136),12.1
588,108787,41.37104,-93.34581,Low Clearance,Pleasantville,IA,50225,LC13,,13 - 8 height clearance - Sep 2013: User reports signage says 14-5 but unable to verify thus far,13.8
589,108788,42.55050120000001,-94.6782382,Low Clearance,Pomeroy,IA,50575,LC14,,14 - 0 height clearance,14.0
590,108794,41.0022727,-95.2300621,Low Clearance,Red Oak,IA,51566,LC12,,12 - 6 height clearance (136),12.6
591,108795,41.0044903,-95.2230971,Low Clearance,Red Oak,IA,51566,LC13,,13 - 6 height clearance,13.6
592,108796,41.0067016,-95.2172711,Low Clearance,Red Oak,IA,51566,LC12,,12 - 6 height clearance (136),12.6
593,108802,42.399952,-94.60902790000002,Low Clearance,Rockwell City,IA,50579,LC14,,14 - 5 height clearance,14.5
594,108817,41.32956,-92.19393,Low Clearance,Sigourney,IA,52591,LC15,,15 - 0 height clearance,15.0
595,108839,42.0154063,-93.1748132,Low Clearance,State Center,IA,50247,LC14,,14 - 5 height clearance,14.5
596,108881,41.30267,-91.69034,Low Clearance,Washington,IA,52353,LC13,,13 - 6 height clearance,13.6
597,108887,42.4983124,-92.3182165,Low Clearance,Waterloo,IA,50703,LC13,,13 - 10 height clearance,13.1
598,108888,42.5005,-92.32523,Low Clearance,Waterloo,IA,50702,LC14,,14 - 4 height clearance,14.4
599,108889,42.5027347,-92.307791,Low Clearance,Waterloo,IA,50703,LC13,,13 - 5 height clearance (136),13.5
600,108900,42.4693844,-93.8138005,Low Clearance,Webster City,IA,50595,LC13,,13 - 8 height clearance,13.8
601,108901,42.47129260000001,-93.8070128,Low Clearance,Webster City,IA,50595,LC12,,12 - 5 height clearance (136),12.5
602,108926,42.80435,-112.81038,Low Clearance,American Falls,ID,83211,LC14,,14 - 0 height clearance,14.0
603,108958,43.60102,-116.21306,Low Clearance,Boise,ID,83706,LC14,,14 - 2 height clearance,14.2
604,109067,46.22946,-116.45257,Low Clearance,Craigmont,ID,83523,LC10,,10 - 0 height clearance (136),10.0
605,109087,43.97922,-116.923329,Low Clearance,Fruitland,ID,83619,LC12,,12 - 0 height clearance (136),12.0
606,109099,42.95882,-115.28194,Low Clearance,Glenns Ferry,ID,83623,LC11,,11 - 8 height clearance (136),11.8
607,109152,43.483164,-112.044583,Low Clearance,Idaho Falls,ID,83402,LC13,,13 - 4 height clearance (136),13.4
608,109153,43.49409,-112.0362,Low Clearance,Idaho Falls,ID,83402,LC11,,11 - 6 height clearance (136),11.6
609,109154,43.49602,-112.03508,Low Clearance,Idaho Falls,ID,83402,LC13,,13 - 8 height clearance,13.8
610,109198,46.449347,-116.81053,Low Clearance,Lapwai,ID,83540,LC13,,13 - 10 height clearance,13.1
611,109202,42.123501,-112.218702,Low Clearance,Lenore,ID,83541,LC13,,13 - 6 height clearance,13.6
612,109234,42.56706,-112.179381,Low Clearance,McCammon,ID,83250,LC13,,13 - 10 height clearance,13.1
613,109266,43.57468,-116.54867,Low Clearance,Nampa,ID,83687,LC11,,11 - 0 height clearance (136),11.0
614,109267,43.57552,-116.54527,Low Clearance,Nampa,ID,83687,LC12,,12 - 0 height clearance (136),12.0
615,109268,43.57771,-116.55309,Low Clearance,Nampa,ID,83687,LC13,,13 - 6 height clearance,13.6
616,109269,43.58009000000001,-116.56005,Low Clearance,Nampa,ID,83687,LC13,,13 - 6 height clearance,13.6
617,109270,43.58665,-116.54322,Low Clearance,Nampa,ID,83687,LC14,,14 - 6 height clearance,14.6
618,109313,42.86306,-112.44911,Low Clearance,Pocatello,ID,83201,LC12,,12 - 2 height clearance (136),12.0
619,109314,42.88719,-112.47643,Low Clearance,Pocatello,ID,83201,LC13,,13 - 6 height clearance,13.6
620,109385,42.54557,-114.4406,Low Clearance,Twin Falls,ID,83301,LC13,,13 - 8 height clearance,13.8
621,109395,44.246917,-116.980459,Low Clearance,Weiser,ID,83762,LC14,,14 - 0 height clearance,14.0
622,109399,42.81253,-114.77765,Low Clearance,Wendell,ID,83355,LC13,,13 - 10 height clearance,13.1
623,109409,47.38067,-116.87604,Low Clearance,Worley,ID,83876,LC13,,13 - 10 height clearance,13.1
624,109410,47.40252,-116.91683,Low Clearance,Worley,ID,83876,LC13,,13 - 10 height clearance,13.1
625,109423,41.06083,-88.85883000000003,Low Clearance,Ancona,IL,61311,LC13,,13 - 0 height clearance (136),13.0
626,109434,40.23026,-90.95388,Low Clearance,Augusta,IL,62311,LC13,,13 - 9 height clearance,13.9
627,109436,41.74631,-88.33601,Low Clearance,Aurora,IL,60506,LC13,,13 - 9 height clearance,13.9
628,109437,41.75454000000001,-88.31533,Low Clearance,Aurora,IL,60506,LC13,,13 - 9 height clearance,13.9
629,109438,41.754862,-88.314646,Low Clearance,Aurora,IL,60506,LC12,,12 - 1 height clearance (136),12.1
630,109439,41.755723,-88.313236,Low Clearance,Aurora,IL,60506,LC12,,12 - 1 height clearance (136),12.1
631,109440,41.75664,-88.31199000000002,Low Clearance,Aurora,IL,60506,LC13,,13 - 1 height clearance (136),13.1
632,109441,41.757535,-88.310895,Low Clearance,Aurora,IL,60506,LC14,,14 - 1 height clearance,14.1
633,109442,41.75849,-88.30971,Low Clearance,Aurora,IL,60506,LC13,,13 - 10 height clearance,13.1
634,109443,41.78148,-88.23169,Low Clearance,Aurora,IL,60506,LC14,,14 - 0 height clearance,14.0
635,109500,41.14202,-87.86157,Low Clearance,Bradley,IL,60915,LC13,,13 - 1 height clearance (136),13.1
636,109509,41.85952,-87.86265,Low Clearance,Broadview,IL,60155,LC14,,14 - 1 height clearance,14.1
637,109510,37.12198,-88.626868,Low Clearance,Brookport,IL,62910,LC13,,13 - 0 height clearance (136),13.0
638,109519,42.131764,-89.245512,Low Clearance,Byron,IL,61010,LC14,,14 - 8 height clearance,14.8
639,109520,42.370102,-88.966514,Low Clearance,Caledonia,IL,61011,LC14,,14 - 0 height clearance,14.0
640,109521,40.08676,-91.02947,Low Clearance,Camp Point,IL,62320,LC13,,13 - 8 height clearance,13.8
641,109522,40.62304,-90.02972,Low Clearance,Canton,IL,61520,LC13,,13 - 10 height clearance,13.1
642,109528,39.239711,-89.92817099999998,Low Clearance,Carlinville,IL,62626,LC13,,13 - 10 height clearance,13.1
643,109529,39.278618,-89.797001,Low Clearance,Carlinville,IL,62626,LC13,,13 - 6 height clearance,13.6
644,109544,38.529296,-89.135814,Low Clearance,Centralia,IL,62801,LC14,,14 - 0 height clearance,14.0
645,109548,40.09445,-88.24472,Low Clearance,Champaign,IL,61820,LC11,,11 - 10 height clearance (136),11.1
646,109549,40.10266,-88.2434,Low Clearance,Champaign,IL,61820,LC11,,11 - 6 height clearance (136),11.6
647,109550,40.11021,-88.24218,Low Clearance,Champaign,IL,61820,LC11,,11 - 10 height clearance (136),11.1
648,109551,40.11256,-88.24181999999998,Low Clearance,Champaign,IL,61820,LC12,,12 - 6 height clearance (136),12.6
649,109552,40.11483,-88.24113,Low Clearance,Champaign,IL,61820,LC11,,11 - 10 height clearance (136),11.1
650,109553,40.11992,-88.23911,Low Clearance,Champaign,IL,61820,LC10,,10 - 6 height clearance (136),10.6
651,109573,41.651816,-87.61202,Low Clearance,Chicago,IL,,LC13,,13 - 7 EX height clearance,13.7
652,109574,41.659134,-87.618082,Low Clearance,Chicago,IL,,LC14,,14 - 4 height clearance,14.4
653,109575,41.663129,-87.59183900000002,Low Clearance,Chicago,IL,,LC14,,14 - 2 height clearance,14.2
654,109576,41.663735,-87.591679,Low Clearance,Chicago,IL,,LC14,,14 - 2 height clearance,14.2
655,109577,41.683025,-87.62067900000002,Low Clearance,Chicago,IL,,LC12,,12 - 10 height clearance (136),12.1
656,109578,41.683994,-87.612374,Low Clearance,Chicago,IL,,LC11,,11 - 6 height clearance (136),11.6
657,109579,41.685444,-87.612095,Low Clearance,Chicago,IL,,LC13,,13 - 0 height clearance (136),13.0
658,109580,41.68913,-87.61129100000002,Low Clearance,Chicago,IL,,LC11,,11 - 8 height clearance (136),11.8
659,109581,41.692743,-87.6104,Low Clearance,Chicago,IL,,LC13,,13 - 0 height clearance (136),13.0
660,109582,41.696404,-87.609531,Low Clearance,Chicago,IL,,LC11,,11 - 8 height clearance (136),11.8
661,109583,41.700113,-87.608662,Low Clearance,Chicago,IL,,LC13,,13 - 5 EX height clearance (136),13.5
662,109584,41.703766,-87.607825,Low Clearance,Chicago,IL,,LC11,,11 - 8 height clearance (136),11.8
663,109585,41.707427,-87.606999,Low Clearance,Chicago,IL,,LC13,,13 - 8 height clearance,13.8
664,109586,41.712913,-87.605808,Low Clearance,Chicago,IL,,LC13,,13 - 10 height clearance,13.1
665,109587,41.713754,-87.534633,Low Clearance,Chicago,IL,,LC11,,11 - 8 height clearance (136),11.8
666,109588,41.714725,-87.536537,Low Clearance,Chicago,IL,,LC14,,14 - 2 height clearance,14.2
667,109589,41.714819,-87.53524499999997,Low Clearance,Chicago,IL,,LC14,,14 - 2 height clearance,14.2
668,109590,41.71638,-87.53771400000002,Low Clearance,Chicago,IL,,LC11,,11 - 6 height clearance (136),11.6
669,109591,41.720968,-87.54711,Low Clearance,Chicago,IL,,LC11,,11 - 10 height clearance (136),11.1
670,109592,41.722026,-87.603459,Low Clearance,Chicago,IL,,LC14,,14 - 0 height clearance,14.0
671,109593,41.722323,-87.586786,Low Clearance,Chicago,IL,,LC13,,13 - 5 height clearance (136),13.5
672,109594,41.722651,-87.55973900000002,Low Clearance,Chicago,IL,,LC14,,14 - 4 height clearance,14.4
673,109595,41.723236,-87.585166,Low Clearance,Chicago,IL,,LC14,,14 - 4 height clearance,14.4
674,109596,41.723244,-87.594768,Low Clearance,Chicago,IL,,LC13,,13 - 6 EX height clearance,13.6
675,109597,41.72332,-87.57536400000002,Low Clearance,Chicago,IL,,LC11,,11 - 6 height clearance (136),11.6
676,109598,41.72334,-87.604596,Low Clearance,Chicago,IL,,LC13,,13 - 7 EX height clearance,13.7
677,109599,41.72338,-87.570511,Low Clearance,Chicago,IL,,LC11,,11 - 10 height clearance (136),11.1
678,109600,41.723636,-87.55113399999998,Low Clearance,Chicago,IL,,LC14,,14 - 4 height clearance,14.4
679,109601,41.723756,-87.553849,Low Clearance,Chicago,IL,,LC13,,13 - 5 EX height clearance (136),13.5
680,109602,41.723772,-87.556638,Low Clearance,Chicago,IL,,LC11,,11 - 10 height clearance (136),11.1
681,109603,41.723812,-87.54704699999998,Low Clearance,Chicago,IL,,LC14,,14 - 4 height clearance,14.4
682,109604,41.7239,-87.56075799999998,Low Clearance,Chicago,IL,,LC11,,11 - 10 height clearance (136),11.1
683,109605,41.725526,-87.55113399999998,Low Clearance,Chicago,IL,,LC13,,13 - 6 EX height clearance,13.6
684,109606,41.725742,-87.602815,Low Clearance,Chicago,IL,,LC13,,13 - 0 height clearance (136),13.0
685,109607,41.725926,-87.551156,Low Clearance,Chicago,IL,,LC13,,13 - 6 EX height clearance,13.6
686,109608,41.727095,-87.553248,Low Clearance,Chicago,IL,,LC13,,13 - 0 height clearance (136),13.0
687,109609,41.72792800000001,-87.614295,Low Clearance,Chicago,IL,,LC13,,13 - 0 height clearance (136),13.0
688,109610,41.72818400000001,-87.554997,Low Clearance,Chicago,IL,,LC14,,14 - 0 height clearance,14.0
689,109611,41.729409,-87.601935,Low Clearance,Chicago,IL,,LC13,,13 - 0 height clearance (136),13.0
690,109612,41.729617,-87.61917700000002,Low Clearance,Chicago,IL,,LC13,,13 - 0 height clearance (136),13.0
691,109613,41.730066,-87.624015,Low Clearance,Chicago,IL,,LC12,,12 - 10 height clearance (136),12.1
692,109614,41.730114,-87.624004,Low Clearance,Chicago,IL,,LC12,,12 - 10 height clearance (136),12.1
693,109615,41.731921,-87.56116999999998,Low Clearance,Chicago,IL,,LC11,,11 - 8 height clearance (136),11.8
694,109616,41.732148,-87.648348,Low Clearance,Chicago,IL,,LC11,,11 - 4 height clearance (136),11.4
695,109617,41.732532,-87.647082,Low Clearance,Chicago,IL,,LC13,,13 - 0 height clearance (136),13.0
696,109618,41.732876,-87.646406,Low Clearance,Chicago,IL,,LC14,,14 - 4 height clearance,14.4
697,109619,41.734277,-87.645527,Low Clearance,Chicago,IL,,LC11,,11 - 10 height clearance (136),11.1
698,109620,41.734357,-87.634047,Low Clearance,Chicago,IL,,LC11,,11 - 8 height clearance (136),11.8
699,109621,41.734381,-87.634004,Low Clearance,Chicago,IL,,LC11,,11 - 8 height clearance (136),11.8
700,109622,41.734469,-87.563547,Low Clearance,Chicago,IL,,LC11,,11 - 10 height clearance (136),11.1
701,109623,41.736039,-87.64521500000002,Low Clearance,Chicago,IL,,LC12,,12 - 10 height clearance (136),12.1
702,109624,41.736327,-87.632577,Low Clearance,Chicago,IL,,LC13,,13 - 7 EX height clearance,13.7
703,109625,41.736727,-87.600476,Low Clearance,Chicago,IL,,LC14,,14 - 2 height clearance,14.2
704,109626,41.736847,-87.59530500000002,Low Clearance,Chicago,IL,,LC14,,14 - 0 height clearance,14.0
705,109627,41.736907,-87.644474,Low Clearance,Chicago,IL,,LC12,,12 - 8 height clearance (136),12.8
706,109628,41.737151,-87.56815,Low Clearance,Chicago,IL,,LC13,,13 - 7 EX height clearance,13.7
707,109629,41.73715900000001,-87.567356,Low Clearance,Chicago,IL,,LC13,,13 - 7 EX height clearance,13.7
708,109630,41.738985,-87.57023199999998,Low Clearance,Chicago,IL,,LC11,,11 - 10 height clearance (136),11.1
709,109631,41.739105,-87.643713,Low Clearance,Chicago,IL,,LC13,,13 - 0 height clearance (136),13.0
710,109632,41.74073,-87.573246,Low Clearance,Chicago,IL,,LC11,,11 - 8 height clearance (136),11.8
711,109633,41.740866,-87.572581,Low Clearance,Chicago,IL,,LC11,,11 - 8 height clearance (136),11.8
712,109634,41.742379,-87.637458,Low Clearance,Chicago,IL,,LC14,,14 - 0 height clearance,14.0
713,109635,41.742731,-87.687272,Low Clearance,Chicago,IL,,LC13,,13 - 6 height clearance,13.6
714,109636,41.7433,-87.57582099999998,Low Clearance,Chicago,IL,,LC11,,11 - 6 height clearance (136),11.6
715,109637,41.743428,-87.642201,Low Clearance,Chicago,IL,,LC11,,11 - 10 height clearance (136),11.1
716,109638,41.743644,-87.636364,Low Clearance,Chicago,IL,,LC14,,14 - 0 height clearance,14.0
717,109639,41.744044,-87.598652,Low Clearance,Chicago,IL,,LC13,,13 - 2 height clearance (136),13.2
718,109640,41.744476,-87.682799,Low Clearance,Chicago,IL,,LC13,,13 - 6 height clearance,13.6
719,109641,41.745893,-87.598276,Low Clearance,Chicago,IL,,LC11,,11 - 4 height clearance (136),11.4
720,109642,41.746614,-87.581078,Low Clearance,Chicago,IL,,LC11,,11 - 8 height clearance (136),11.8
721,109643,41.74704600000001,-87.640688,Low Clearance,Chicago,IL,,LC13,,13 - 8 height clearance,13.8
722,109644,41.747086,-87.638102,Low Clearance,Chicago,IL,,LC13,,13 - 8 height clearance,13.8
723,109645,41.747742,-87.583417,Low Clearance,Chicago,IL,,LC11,,11 - 10 height clearance (136),11.1
724,109646,41.748871,-87.640023,Low Clearance,Chicago,IL,,LC11,,11 - 8 height clearance (136),11.8
725,109647,41.74890300000001,-87.638778,Low Clearance,Chicago,IL,,LC11,,11 - 8 height clearance (136),11.8
726,109648,41.749455,-87.702368,Low Clearance,Chicago,IL,,LC13,,13 - 6 height clearance,13.6
727,109649,41.74955900000001,-87.585552,Low Clearance,Chicago,IL,,LC14,,14 - 2 height clearance,14.2
728,109650,41.749824,-87.701778,Low Clearance,Chicago,IL,,LC13,,13 - 6 height clearance,13.6
729,109651,41.750184,-87.678271,Low Clearance,Chicago,IL,,LC13,,13 - 0 height clearance (136),13.0
730,109652,41.75069600000001,-87.639143,Low Clearance,Chicago,IL,,LC13,,13 - 10 height clearance,13.1
731,109653,41.751376,-87.597032,Low Clearance,Chicago,IL,,LC12,,12 - 10 height clearance (136),12.1
732,109654,41.751496,-87.587451,Low Clearance,Chicago,IL,,LC14,,14 - 2 height clearance,14.2
733,109655,41.752529,-87.639475,Low Clearance,Chicago,IL,,LC11,,11 - 8 height clearance (136),11.8
734,109656,41.752545,-87.638724,Low Clearance,Chicago,IL,,LC11,,11 - 8 height clearance (136),11.8
735,109657,41.753385,-87.722023,Low Clearance,Chicago,IL,,LC13,,13 - 10 height clearance,13.1
736,109658,41.753706,-87.591174,Low Clearance,Chicago,IL,,LC12,,12 - 2 height clearance (136),12.0
737,109659,41.756211,-87.63725500000002,Low Clearance,Chicago,IL,,LC11,,11 - 6 height clearance (136),11.6
738,109660,41.756851,-87.59445699999998,Low Clearance,Chicago,IL,,LC11,,11 - 4 height clearance (136),11.4
739,109661,41.75685900000001,-87.594876,Low Clearance,Chicago,IL,,LC11,,11 - 4 height clearance (136),11.4
740,109662,41.757531,-87.68305600000002,Low Clearance,Chicago,IL,,LC14,,14 - 0 height clearance,14.0
741,109663,41.757603,-87.673357,Low Clearance,Chicago,IL,,LC13,,13 - 0 height clearance (136),13.0
742,109664,41.757827,-87.658787,Low Clearance,Chicago,IL,,LC11,,11 - 8 height clearance (136),11.8
743,109665,41.757895,-87.66362,Low Clearance,Chicago,IL,,LC13,,13 - 10 height clearance,13.1
744,109666,41.757931,-87.653947,Low Clearance,Chicago,IL,,LC12,,12 - 8 height clearance (136),12.8
745,109667,41.757931,-87.649067,Low Clearance,Chicago,IL,,LC14,,14 - 4 height clearance,14.4
746,109668,41.757964,-87.641793,Low Clearance,Chicago,IL,,LC11,,11 - 10 height clearance (136),11.1
747,109669,41.757981,-87.65150200000002,Low Clearance,Chicago,IL,,LC13,,13 - 8 height clearance,13.8
748,109670,41.757988,-87.646642,Low Clearance,Chicago,IL,,LC12,,12 - 0 height clearance (136),12.0
749,109671,41.757988,-87.644207,Low Clearance,Chicago,IL,,LC13,,13 - 10 height clearance,13.1
750,109672,41.75818,-87.64178199999998,Low Clearance,Chicago,IL,,LC11,,11 - 10 height clearance (136),11.1
751,109673,41.758444,-87.59527299999998,Low Clearance,Chicago,IL,,LC13,,13 - 2 height clearance (136),13.2
752,109674,41.758684,-87.59689300000002,Low Clearance,Chicago,IL,,LC13,,13 - 2 height clearance (136),13.2
753,109675,41.758708,-87.597494,Low Clearance,Chicago,IL,,LC13,,13 - 10 height clearance,13.1
754,109676,41.75874,-87.59536899999998,Low Clearance,Chicago,IL,,LC13,,13 - 6 EX height clearance,13.6
755,109677,41.759228,-87.598084,Low Clearance,Chicago,IL,,LC11,,11 - 6 height clearance (136),11.6
756,109678,41.759812,-87.639572,Low Clearance,Chicago,IL,,LC12,,12 - 10 height clearance (136),12.1
757,109679,41.759884,-87.635999,Low Clearance,Chicago,IL,,LC13,,13 - 0 height clearance (136),13.0
758,109680,41.762269,-87.6023,Low Clearance,Chicago,IL,,LC12,,12 - 0 height clearance (136),12.0
759,109681,41.762341,-87.594597,Low Clearance,Chicago,IL,,LC11,,11 - 10 height clearance (136),11.1
760,109682,41.76347,-87.6394,Low Clearance,Chicago,IL,,LC11,,11 - 6 height clearance (136),11.6
761,109683,41.763542,-87.634626,Low Clearance,Chicago,IL,,LC12,,12 - 6 height clearance (136),12.6
762,109684,41.76423,-87.5942,Low Clearance,Chicago,IL,,LC11,,11 - 10 height clearance (136),11.1
763,109685,41.76451,-87.605487,Low Clearance,Chicago,IL,,LC13,,13 - 0 height clearance (136),13.0
764,109686,41.764862,-87.605519,Low Clearance,Chicago,IL,,LC13,,13 - 0 height clearance (136),13.0
765,109687,41.765262,-87.639486,Low Clearance,Chicago,IL,,LC11,,11 - 10 height clearance (136),11.1
766,109688,41.765358,-87.63391800000002,Low Clearance,Chicago,IL,,LC14,,14 - 2 height clearance,14.2
767,109689,41.765838,-87.606989,Low Clearance,Chicago,IL,,LC13,,13 - 7 EX height clearance,13.7
768,109690,41.765838,-87.606753,Low Clearance,Chicago,IL,,LC13,,13 - 7 EX height clearance,13.7
769,109691,41.76603,-87.593696,Low Clearance,Chicago,IL,,LC11,,11 - 8 height clearance (136),11.8
770,109692,41.767111,-87.639475,Low Clearance,Chicago,IL,,LC11,,11 - 10 height clearance (136),11.1
771,109693,41.767199,-87.633285,Low Clearance,Chicago,IL,,LC13,,13 - 0 height clearance (136),13.0
772,109694,41.767343,-87.610422,Low Clearance,Chicago,IL,,LC12,,12 - 2 height clearance (136),12.0
773,109695,41.767839,-87.59344899999998,Low Clearance,Chicago,IL,,LC11,,11 - 10 height clearance (136),11.1
774,109696,41.768375,-87.67874300000003,Low Clearance,Chicago,IL,,LC12,,12 - 0 height clearance (136),12.0
775,109697,41.768919,-87.639572,Low Clearance,Chicago,IL,,LC14,,14 - 4 height clearance,14.4
776,109698,41.769023,-87.632566,Low Clearance,Chicago,IL,,LC14,,14 - 6 height clearance,14.6
777,109699,41.770079,-87.612836,Low Clearance,Chicago,IL,,LC13,,13 - 10 height clearance,13.1
778,109700,41.770215,-87.67882900000002,Low Clearance,Chicago,IL,,LC11,,11 - 10 height clearance (136),11.1
779,109701,41.77072,-87.63949699999998,Low Clearance,Chicago,IL,,LC11,,11 - 10 height clearance (136),11.1
780,109702,41.771526,-87.712753,Low Clearance,Chicago,IL,,LC13,,13 - 0 height clearance (136),13.0
781,109703,41.772024,-87.615443,Low Clearance,Chicago,IL,,LC12,,12 - 6 height clearance (136),12.6
782,109704,41.772032,-87.67882900000002,Low Clearance,Chicago,IL,,LC12,,12 - 10 height clearance (136),12.1
783,109705,41.772568,-87.63954,Low Clearance,Chicago,IL,,LC11,,11 - 10 height clearance (136),11.1
784,109706,41.77268,-87.631139,Low Clearance,Chicago,IL,,LC14,,14 - 0 height clearance,14.0
785,109707,41.77292,-87.617878,Low Clearance,Chicago,IL,,LC11,,11 - 10 height clearance (136),11.1
786,109708,41.77328,-87.592022,Low Clearance,Chicago,IL,,LC13,,13 - 6 height clearance,13.6
787,109709,41.773368,-87.712807,Low Clearance,Chicago,IL,,LC13,,13 - 7 EX height clearance,13.7
788,109710,41.774344,-87.639636,Low Clearance,Chicago,IL,,LC11,,11 - 10 height clearance (136),11.1
789,109711,41.774496,-87.630613,Low Clearance,Chicago,IL,,LC11,,11 - 10 height clearance (136),11.1
790,109712,41.77509600000001,-87.625303,Low Clearance,Chicago,IL,,LC14,,14 - 2 height clearance,14.2
791,109713,41.775112,-87.591625,Low Clearance,Chicago,IL,,LC12,,12 - 8 height clearance (136),12.8
792,109714,41.775192,-87.712786,Low Clearance,Chicago,IL,,LC13,,13 - 5 EX height clearance (136),13.5
793,109715,41.775664,-87.678904,Low Clearance,Chicago,IL,,LC13,,13 - 0 height clearance (136),13.0
794,109716,41.776185,-87.639658,Low Clearance,Chicago,IL,,LC11,,11 - 8 height clearance (136),11.8
795,109717,41.776209,-87.630066,Low Clearance,Chicago,IL,,LC13,,13 - 7 EX height clearance,13.7
796,109718,41.776929,-87.591217,Low Clearance,Chicago,IL,,LC13,,13 - 0 height clearance (136),13.0
797,109719,41.776985,-87.712882,Low Clearance,Chicago,IL,,LC13,,13 - 2 height clearance (136),13.2
798,109720,41.778001,-87.63972199999998,Low Clearance,Chicago,IL,,LC11,,11 - 8 height clearance (136),11.8
799,109721,41.778345,-87.62533499999998,Low Clearance,Chicago,IL,,LC14,,14 - 2 height clearance,14.2
800,109722,41.778753,-87.590906,Low Clearance,Chicago,IL,,LC12,,12 - 8 height clearance (136),12.8
801,109723,41.778825,-87.712936,Low Clearance,Chicago,IL,,LC13,,13 - 0 height clearance (136),13.0
802,109724,41.778897,-87.666652,Low Clearance,Chicago,IL,,LC14,,14 - 4 height clearance,14.4
803,109725,41.778945,-87.659335,Low Clearance,Chicago,IL,,LC13,,13 - 8 height clearance,13.8
804,109726,41.779131,-87.652059,Low Clearance,Chicago,IL,,LC13,,13 - 10 height clearance,13.1
805,109727,41.779137,-87.653262,Low Clearance,Chicago,IL,,LC14,,14 - 0 height clearance,14.0
806,109728,41.779145,-87.650816,Low Clearance,Chicago,IL,,LC14,,14 - 2 height clearance,14.2
807,109729,41.77923300000001,-87.67871099999998,Low Clearance,Chicago,IL,,LC14,,14 - 2 height clearance,14.2
808,109730,41.779241,-87.678904,Low Clearance,Chicago,IL,,LC14,,14 - 2 height clearance,14.2
809,109731,41.779849,-87.639776,Low Clearance,Chicago,IL,,LC14,,14 - 2 height clearance,14.2
810,109732,41.780009,-87.628629,Low Clearance,Chicago,IL,,LC13,,13 - 10 height clearance,13.1
811,109733,41.780017,-87.62821,Low Clearance,Chicago,IL,,LC13,,13 - 10 height clearance,13.1
812,109734,41.780033,-87.627298,Low Clearance,Chicago,IL,,LC13,,13 - 10 height clearance,13.1
813,109735,41.780049,-87.625936,Low Clearance,Chicago,IL,,LC13,,13 - 10 height clearance,13.1
814,109736,41.78015300000001,-87.618104,Low Clearance,Chicago,IL,,LC13,,13 - 6 height clearance,13.6
815,109737,41.780161,-87.617235,Low Clearance,Chicago,IL,,LC13,,"13 - 6 NB, 13 - 6 E-W height clearance",13.6
816,109738,41.780241,-87.614402,Low Clearance,Chicago,IL,,LC13,,"13 - 6 E-W, 14 - 0 N-S height clearance",13.6
817,109739,41.780273,-87.612031,Low Clearance,Chicago,IL,,LC13,,"13 - 6 E-W, 13 - 10 SB height clearance",13.6
818,109740,41.7803,-87.615635,Low Clearance,Chicago,IL,,LC13,,"13 - 6 E-W, 14 - 2 N-S height clearance",13.6
819,109741,41.780305,-87.613201,Low Clearance,Chicago,IL,,LC13,,"13 - 10 NB, 13 - 6 E-W height clearance",13.1
820,109742,41.780313,-87.61079699999998,Low Clearance,Chicago,IL,,LC13,,"13 - 6 NB, 13 - 6 E-W height clearance",13.6
821,109743,41.780329,-87.609596,Low Clearance,Chicago,IL,,LC13,,13 - 6 EX height clearance,13.6
822,109744,41.78035300000001,-87.608362,Low Clearance,Chicago,IL,,LC13,,"13 - 6 E-W, 13 - 8 SB height clearance",13.6
823,109745,41.780385,-87.607192,Low Clearance,Chicago,IL,,LC13,,"13 - 7 NB, 13 - 6 E-W height clearance",13.7
824,109746,41.780393,-87.605926,Low Clearance,Chicago,IL,,LC13,,"13 - 6 N-S, 13 - 0 E-W height clearance",13.6
825,109747,41.780569,-87.590402,Low Clearance,Chicago,IL,,LC14,,14 - 0 height clearance,14.0
826,109748,41.780657,-87.712936,Low Clearance,Chicago,IL,,LC13,,13 - 6 EX height clearance,13.6
827,109749,41.780729,-87.639787,Low Clearance,Chicago,IL,,LC11,,11 - 10 height clearance (136),11.1
828,109750,41.780753,-87.630174,Low Clearance,Chicago,IL,,LC14,,14 - 0 height clearance,14.0
829,109751,41.781641,-87.631858,Low Clearance,Chicago,IL,,LC14,,14 - 4 height clearance,14.4
830,109752,41.781673,-87.63984,Low Clearance,Chicago,IL,,LC11,,11 - 10 height clearance (136),11.1
831,109753,41.782033,-87.63265200000002,Low Clearance,Chicago,IL,,LC11,,11 - 2 height clearance (136),11.2
832,109754,41.782449,-87.71312900000002,Low Clearance,Chicago,IL,,LC13,,13 - 2 height clearance (136),13.2
833,109755,41.782561,-87.633478,Low Clearance,Chicago,IL,,LC11,,11 - 6 height clearance (136),11.6
834,109756,41.783161,-87.627802,Low Clearance,Chicago,IL,,LC13,,13 - 2 height clearance (136),13.2
835,109757,41.783449,-87.639787,Low Clearance,Chicago,IL,,LC11,,11 - 8 height clearance (136),11.8
836,109758,41.783473,-87.639937,Low Clearance,Chicago,IL,,LC11,,11 - 10 height clearance (136),11.1
837,109759,41.783537,-87.63466899999997,Low Clearance,Chicago,IL,,LC12,,12 - 10 height clearance (136),12.1
838,109760,41.783841,-87.618071,Low Clearance,Chicago,IL,,LC14,,14 - 4 height clearance,14.4
839,109761,41.784281,-87.71312900000002,Low Clearance,Chicago,IL,,LC13,,13 - 2 height clearance (136),13.2
840,109762,41.784449,-87.63512,Low Clearance,Chicago,IL,,LC11,,11 - 2 height clearance (136),11.2
841,109763,41.784681,-87.639969,Low Clearance,Chicago,IL,,LC11,,11 - 8 height clearance (136),11.8
842,109764,41.785337,-87.635152,Low Clearance,Chicago,IL,,LC11,,11 - 4 height clearance (136),11.4
843,109765,41.785481,-87.628221,Low Clearance,Chicago,IL,,LC12,,12 - 4 height clearance (136),12.4
844,109766,41.786113,-87.71314,Low Clearance,Chicago,IL,,LC13,,13 - 10 height clearance,13.1
845,109767,41.786137,-87.589157,Low Clearance,Chicago,IL,,LC12,,12 - 2 height clearance (136),12.0
846,109768,41.786345,-87.63194399999998,Low Clearance,Chicago,IL,,LC14,,14 - 2 height clearance,14.2
847,109769,41.786561,-87.679988,Low Clearance,Chicago,IL,,LC14,,14 - 2 height clearance,14.2
848,109770,41.786929,-87.622266,Low Clearance,Chicago,IL,,LC14,,14 - 0 height clearance,14.0
849,109771,41.786969,-87.619026,Low Clearance,Chicago,IL,,LC14,,14 - 4 height clearance,14.4
850,109772,41.787113,-87.639915,Low Clearance,Chicago,IL,,LC13,,13 - 8 height clearance,13.8
851,109773,41.787193,-87.635238,Low Clearance,Chicago,IL,,LC13,,13 - 8 height clearance,13.8
852,109774,41.787321,-87.62830699999998,Low Clearance,Chicago,IL,,LC14,,14 - 0 height clearance,14.0
853,109775,41.787601,-87.67411899999998,Low Clearance,Chicago,IL,,LC13,,13 - 0 height clearance (136),13.0
854,109776,41.787633,-87.672928,Low Clearance,Chicago,IL,,LC11,,11 - 8 height clearance (136),11.8
855,109777,41.787649,-87.671705,Low Clearance,Chicago,IL,,LC12,,12 - 0 height clearance (136),12.0
856,109778,41.787665,-87.67049300000002,Low Clearance,Chicago,IL,,LC12,,12 - 2 height clearance (136),12.0
857,109779,41.787697,-87.669291,Low Clearance,Chicago,IL,,LC13,,13 - 0 height clearance (136),13.0
858,109780,41.78772100000001,-87.666855,Low Clearance,Chicago,IL,,LC13,,13 - 8 height clearance,13.8
859,109781,41.787769,-87.660804,Low Clearance,Chicago,IL,,LC12,,12 - 2 height clearance (136),12.0
860,109782,41.787779,-87.66443000000002,Low Clearance,Chicago,IL,,LC13,,13 - 10 height clearance,13.1
861,109783,41.787793,-87.663186,Low Clearance,Chicago,IL,,LC13,,13 - 2 height clearance (136),13.2
862,109784,41.787833,-87.65839,Low Clearance,Chicago,IL,,LC12,,12 - 10 height clearance (136),12.1
863,109785,41.787841,-87.66199499999998,Low Clearance,Chicago,IL,,LC13,,13 - 6 height clearance,13.6
864,109786,41.787865,-87.657135,Low Clearance,Chicago,IL,,LC12,,12 - 10 height clearance (136),12.1
865,109787,41.787873,-87.588803,Low Clearance,Chicago,IL,,LC11,,11 - 10 height clearance (136),11.1
866,109788,41.787873,-87.65961300000002,Low Clearance,Chicago,IL,,LC12,,12 - 6 height clearance (136),12.6
867,109789,41.787873,-87.65471,Low Clearance,Chicago,IL,,LC13,,13 - 0 height clearance (136),13.0
868,109790,41.787897,-87.653477,Low Clearance,Chicago,IL,,LC12,,12 - 2 height clearance (136),12.0
869,109791,41.787905,-87.713183,Low Clearance,Chicago,IL,,LC13,,13 - 6 EX height clearance,13.6
870,109792,41.787937,-87.651052,Low Clearance,Chicago,IL,,LC11,,11 - 10 height clearance (136),11.1
871,109793,41.787947,-87.652268,Low Clearance,Chicago,IL,,LC11,,11 - 10 height clearance (136),11.1
872,109794,41.787961,-87.648649,Low Clearance,Chicago,IL,,LC11,,11 - 10 height clearance (136),11.1
873,109795,41.788009,-87.64988199999998,Low Clearance,Chicago,IL,,LC11,,11 - 10 height clearance (136),11.1
874,109796,41.788017,-87.64375600000002,Low Clearance,Chicago,IL,,LC11,,11 - 4 height clearance (136),11.4
875,109797,41.788017,-87.64617,Low Clearance,Chicago,IL,,LC11,,11 - 6 height clearance (136),11.6
876,109798,41.788017,-87.642544,Low Clearance,Chicago,IL,,LC11,,11 - 4 height clearance (136),11.4
877,109799,41.788025,-87.64739300000002,Low Clearance,Chicago,IL,,LC11,,11 - 6 height clearance (136),11.6
878,109800,41.788041,-87.644958,Low Clearance,Chicago,IL,,LC13,,13 - 2 height clearance (136),13.2
879,109801,41.788073,-87.64134200000002,Low Clearance,Chicago,IL,,LC11,,11 - 6 height clearance (136),11.6
880,109802,41.788257,-87.637716,Low Clearance,Chicago,IL,,LC11,,11 - 6 height clearance (136),11.6
881,109803,41.788961,-87.63999,Low Clearance,Chicago,IL,,LC11,,11 - 8 height clearance (136),11.8
882,109804,41.790761,-87.640108,Low Clearance,Chicago,IL,,LC12,,12 - 10 height clearance (136),12.1
883,109805,41.790833,-87.635377,Low Clearance,Chicago,IL,,LC11,,11 - 4 height clearance (136),11.4
884,109806,41.790961,-87.62836,Low Clearance,Chicago,IL,,LC11,,11 - 8 height clearance (136),11.8
885,109807,41.791505,-87.58787,Low Clearance,Chicago,IL,,LC11,,11 - 8 height clearance (136),11.8
886,109808,41.793352,-87.58734399999999,Low Clearance,Chicago,IL,,LC14,,14 - 2 height clearance,14.2
887,109809,41.793488,-87.678732,Low Clearance,Chicago,IL,,LC12,,12 - 10 height clearance (136),12.1
888,109810,41.79384,-87.679571,Low Clearance,Chicago,IL,,LC12,,12 - 10 height clearance (136),12.1
889,109811,41.794048,-87.640303,Low Clearance,Chicago,IL,,LC13,,13 - 6 EX height clearance,13.6
890,109812,41.79408,-87.635475,Low Clearance,Chicago,IL,,LC12,,12 - 6 height clearance (136),12.6
891,109813,41.79424,-87.62833,Low Clearance,Chicago,IL,,LC12,,12 - 8 height clearance (136),12.8
892,109814,41.794368,-87.64010999999998,Low Clearance,Chicago,IL,,LC13,,13 - 6 EX height clearance,13.6
893,109815,41.794448,-87.635432,Low Clearance,Chicago,IL,,LC12,,12 - 4 height clearance (136),12.4
894,109816,41.794592,-87.628416,Low Clearance,Chicago,IL,,LC12,,12 - 8 height clearance (136),12.8
895,109817,41.7952,-87.58705400000002,Low Clearance,Chicago,IL,,LC11,,11 - 8 height clearance (136),11.8
896,109818,41.795288,-87.640226,Low Clearance,Chicago,IL,,LC11,,11 - 8 height clearance (136),11.8
897,109819,41.796576,-87.61839300000003,Low Clearance,Chicago,IL,,LC14,,14 - 6 height clearance,14.6
898,109820,41.796976,-87.731808,Low Clearance,Chicago,IL,,LC13,,13 - 8 height clearance,13.8
899,109821,41.798352,-87.728192,Low Clearance,Chicago,IL,,LC14,,14 - 4 height clearance,14.4
900,109822,41.79838400000001,-87.61839300000003,Low Clearance,Chicago,IL,,LC13,,13 - 8 height clearance,13.8
901,109823,41.799535,-87.586797,Low Clearance,Chicago,IL,,LC12,,12 - 8 height clearance (136),12.8
902,109824,41.801175,-87.67949399999998,Low Clearance,Chicago,IL,,LC13,,13 - 10 height clearance,13.1
903,109825,41.801655,-87.640377,Low Clearance,Chicago,IL,,LC13,,13 - 6 height clearance,13.6
904,109826,41.801663,-87.640334,Low Clearance,Chicago,IL,,LC13,,13 - 6 height clearance,13.6
905,109827,41.801679,-87.63935699999998,Low Clearance,Chicago,IL,,LC13,,13 - 6 height clearance,13.6
906,109828,41.801687,-87.63935699999998,Low Clearance,Chicago,IL,,LC13,,13 - 6 height clearance,13.6
907,109829,41.801775,-87.63506600000002,Low Clearance,Chicago,IL,,LC13,,13 - 6 height clearance,13.6
908,109830,41.801775,-87.636085,Low Clearance,Chicago,IL,,LC13,,13 - 6 height clearance,13.6
909,109831,41.801791,-87.63571,Low Clearance,Chicago,IL,,LC13,,13 - 6 height clearance,13.6
910,109832,41.801799,-87.634529,Low Clearance,Chicago,IL,,LC13,,13 - 6 height clearance,13.6
911,109833,41.801887,-87.628693,Low Clearance,Chicago,IL,,LC13,,13 - 7 EX height clearance,13.7
912,109834,41.802063,-87.618522,Low Clearance,Chicago,IL,,LC14,,14 - 4 height clearance,14.4
913,109835,41.802479,-87.586861,Low Clearance,Chicago,IL,,LC12,,12 - 8 height clearance (136),12.8
914,109836,41.80431,-87.703827,Low Clearance,Chicago,IL,,LC13,,13 - 0 height clearance (136),13.0
915,109837,41.804526,-87.694064,Low Clearance,Chicago,IL,,LC13,,13 - 0 height clearance (136),13.0
916,109838,41.804574,-87.683743,Low Clearance,Chicago,IL,,LC12,,12 - 10 height clearance (136),12.1
917,109839,41.804598,-87.684343,Low Clearance,Chicago,IL,,LC13,,13 - 7 EX height clearance,13.7
918,109840,41.804614,-87.676994,Low Clearance,Chicago,IL,,LC13,,13 - 6 height clearance,13.6
919,109841,41.804622,-87.67458,Low Clearance,Chicago,IL,,LC13,,13 - 0 height clearance (136),13.0
920,109842,41.80464600000001,-87.672166,Low Clearance,Chicago,IL,,LC12,,12 - 2 height clearance (136),12.0
921,109843,41.80464600000001,-87.669699,Low Clearance,Chicago,IL,,LC12,,12 - 4 height clearance (136),12.4
922,109844,41.804662,-87.675825,Low Clearance,Chicago,IL,,LC12,,12 - 4 height clearance (136),12.4
923,109845,41.804662,-87.673379,Low Clearance,Chicago,IL,,LC12,,12 - 6 height clearance (136),12.6
924,109846,41.804678,-87.670932,Low Clearance,Chicago,IL,,LC12,,12 - 2 height clearance (136),12.0
925,109847,41.804686,-87.666083,Low Clearance,Chicago,IL,,LC12,,12 - 8 height clearance (136),12.8
926,109848,41.804686,-87.684333,Low Clearance,Chicago,IL,,LC13,,13 - 7 EX height clearance,13.7
927,109849,41.804694,-87.668529,Low Clearance,Chicago,IL,,LC11,,11 - 10 height clearance (136),11.1
928,109850,41.804694,-87.667295,Low Clearance,Chicago,IL,,LC11,,11 - 8 height clearance (136),11.8
929,109851,41.804702,-87.663637,Low Clearance,Chicago,IL,,LC12,,12 - 10 height clearance (136),12.1
930,109852,41.804734,-87.66001,Low Clearance,Chicago,IL,,LC12,,12 - 0 height clearance (136),12.0
931,109853,41.804742,-87.662424,Low Clearance,Chicago,IL,,LC12,,12 - 2 height clearance (136),12.0
932,109854,41.804742,-87.657554,Low Clearance,Chicago,IL,,LC12,,12 - 2 height clearance (136),12.0
933,109855,41.804822,-87.655165,Low Clearance,Chicago,IL,,LC12,,12 - 10 height clearance (136),12.1
934,109856,41.804863,-87.652714,Low Clearance,Chicago,IL,,LC13,,13 - 0 height clearance (136),13.0
935,109857,41.804883,-87.650289,Low Clearance,Chicago,IL,,LC12,,12 - 0 height clearance (136),12.0
936,109858,41.805006,-87.645409,Low Clearance,Chicago,IL,,LC12,,12 - 10 height clearance (136),12.1
937,109859,41.805014,-87.643016,Low Clearance,Chicago,IL,,LC11,,11 - 6 height clearance (136),11.6
938,109860,41.80571,-87.618662,Low Clearance,Chicago,IL,,LC14,,14 - 2 height clearance,14.2
939,109861,41.807685,-87.73831,Low Clearance,Chicago,IL,,LC14,,14 - 0 height clearance,14.0
940,109862,41.807989,-87.71386899999997,Low Clearance,Chicago,IL,,LC14,,14 - 0 height clearance,14.0
941,109863,41.80817,-87.713911,Low Clearance,Chicago,IL,,LC14,,14 - 0 height clearance,14.0
942,109864,41.808453,-87.679194,Low Clearance,Chicago,IL,,LC14,,14 - 2 height clearance,14.2
943,109865,41.80902,-87.63645,Low Clearance,Chicago,IL,,LC14,,14 - 2 height clearance,14.2
944,109866,41.809044,-87.635849,Low Clearance,Chicago,IL,,LC14,,14 - 2 height clearance,14.2
945,109867,41.809204,-87.628897,Low Clearance,Chicago,IL,,LC13,,13 - 6 height clearance,13.6
946,109868,41.80934,-87.618844,Low Clearance,Chicago,IL,,LC13,,13 - 10 height clearance,13.1
947,109869,41.80986,-87.591432,Low Clearance,Chicago,IL,,LC13,,13 - 2 height clearance (136),13.2
948,109870,41.810668,-87.589232,Low Clearance,Chicago,IL,,LC14,,14 - 0 height clearance,14.0
949,109871,41.812627,-87.63595600000002,Low Clearance,Chicago,IL,,LC11,,11 - 8 height clearance (136),11.8
950,109872,41.812963,-87.618962,Low Clearance,Chicago,IL,,LC13,,13 - 10 height clearance,13.1
951,109873,41.814794,-87.619005,Low Clearance,Chicago,IL,,LC14,,14 - 2 height clearance,14.2
952,109874,41.815722,-87.67994499999998,Low Clearance,Chicago,IL,,LC14,,14 - 4 height clearance,14.4
953,109875,41.816345,-87.636117,Low Clearance,Chicago,IL,,LC12,,12 - 8 height clearance (136),12.8
954,109876,41.816441,-87.62909,Low Clearance,Chicago,IL,,LC12,,12 - 4 height clearance (136),12.4
955,109877,41.817313,-87.595466,Low Clearance,Chicago,IL,,LC13,,13 - 10 height clearance,13.1
956,109878,41.817353,-87.743438,Low Clearance,Chicago,IL,,LC13,,13 - 8 height clearance,13.8
957,109879,41.8184,-87.619101,Low Clearance,Chicago,IL,,LC14,,14 - 4 height clearance,14.4
958,109880,41.81908,-87.636303,Low Clearance,Chicago,IL,,LC13,,13 - 0 height clearance (136),13.0
959,109881,41.819172,-87.629222,Low Clearance,Chicago,IL,,LC13,,13 - 0 height clearance (136),13.0
960,109882,41.820063,-87.665235,Low Clearance,Chicago,IL,,LC14,,14 - 2 height clearance,14.2
961,109883,41.820183,-87.619187,Low Clearance,Chicago,IL,,LC14,,14 - 2 height clearance,14.2
962,109884,41.820248,-87.665235,Low Clearance,Chicago,IL,,LC14,,14 - 2 height clearance,14.2
963,109885,41.821654,-87.645827,Low Clearance,Chicago,IL,,LC13,,13 - 8 height clearance,13.8
964,109886,41.821654,-87.643434,Low Clearance,Chicago,IL,,LC13,,13 - 7 EX height clearance,13.7
965,109887,41.82167800000001,-87.64464699999998,Low Clearance,Chicago,IL,,LC14,,14 - 2 height clearance,14.2
966,109888,41.821726,-87.638531,Low Clearance,Chicago,IL,,LC13,,13 - 10 height clearance,13.1
967,109889,41.82179,-87.62315699999998,Low Clearance,Chicago,IL,,LC12,,12 - 4 height clearance (136),12.4
968,109890,41.821798,-87.619917,Low Clearance,Chicago,IL,,LC13,,13 - 10 height clearance,13.1
969,109891,41.821806,-87.633167,Low Clearance,Chicago,IL,,LC11,,11 - 8 height clearance (136),11.8
